[
 {
   "code": 10000163171,
   "name": "Филиал в г. Ростов-на-Дону",
   "city": "Ростов-на-Дону [143]",
   "activity": "Да",
   "address": "улица Пушкинская, дом 117",
   "currency": "EUR / RUB / USD",
   "schedule": "пн.-пт.: 09:00-20:00, сб.: 10:00-16:00",
   "metro": "",
   "latitude": 47.22594,
   "longitude": 39.71594,
   "sort": 600,
   "change_at": "13.06.2018 13:34:02",
   "phone": "8 (863) 240-36-46",
   "id": 759
 },
 {
   "code": 10000163172,
   "name": "ДО «РИО Нагибина»",
   "city": "Ростов-на-Дону [143]",
   "activity": "Да",
   "address": "проспект Михаила Нагибина, дом 17, ТРЦ «РИО»",
   "currency": "EUR / RUB / USD",
   "schedule": "пн.-вс.: 10:00-22:00",
   "metro": "",
   "latitude": 47.24756,
   "longitude": 39.71096,
   "sort": 601,
   "change_at": "29.05.2018 14:07:55",
   "phone": "8 (863) 203-67-35",
   "id": 760
 },
 {
   "code": 10000368919,
   "name": "ОКВКУ «Лента»",
   "city": "Ростов-на-Дону [143]",
   "activity": "Да",
   "address": "проспект Аксайский, дом 2, гипермаркет «Лента»",
   "currency": "EUR / RUB / USD",
   "schedule": "пн.-вс.: 09:00-21:00",
   "metro": "",
   "latitude": 47.27033,
   "longitude": 39.82634,
   "sort": 608,
   "change_at": "26.01.2018 15:50:12",
   "phone": "8 (863) 204-02-79",
   "id": 761
 },
 {
   "code": 10000572256,
   "name": "ДО «Темерник»",
   "city": "Ростов-на-Дону [143]",
   "activity": "Да",
   "address": "улица Миронова, дом 4А",
   "currency": "EUR / RUB / USD",
   "schedule": "пн.-вс.: 8:00-19.30",
   "metro": "",
   "latitude": 47.300062,
   "longitude": 39.746256,
   "sort": 609,
   "change_at": "29.05.2018 14:40:54",
   "phone": "8 (863) 240-36-48",
   "id": 2493
 },
 {
   "code": 10000785189,
   "name": "ДО «Атлант»",
   "city": "Ростов-на-Дону [143]",
   "activity": "Да",
   "address": "Аксайский райн, посёлок Янтарный, улица Индустриальная, дом 17",
   "currency": "EUR / RUB / USD",
   "schedule": "пн.-вс.: 08:00-18:00",
   "metro": "",
   "latitude": 47.281133,
   "longitude": 39.820071,
   "sort": 601,
   "change_at": "29.05.2018 14:41:53",
   "phone": "8 (863) 221-38-59",
   "id": 7527
 },
 {
   "code": 21,
   "name": "Орехово-Зуево (офис)",
   "city": "Орехово-Зуево [144]",
   "activity": "Да",
   "address": "Центральный бульвар, дом 5.",
   "currency": "EUR / RUB / USD",
   "schedule": "пн.-пт.: 9:00-20:00, сб.: 10:00-18:00",
   "metro": "",
   "latitude": 55.803509,
   "longitude": 38.978475,
   "sort": 28,
   "change_at": "29.05.2018 14:12:03",
   "phone": "",
   "id": 734
 },
 {
   "code": 10000165302,
   "name": "Филиал в г. Калуга (центральный офис)",
   "city": "Калуга [145]",
   "activity": "Да",
   "address": "улица Воронина, дом 4",
   "currency": "EUR / RUB / USD",
   "schedule": "пн.-пт.: 09:00-19:00, сб.: 10:00-15:30, вс.:-выходной",
   "metro": "",
   "latitude": 54.5202767655,
   "longitude": 36.2601474525,
   "sort": 200,
   "change_at": "29.05.2018 14:17:05",
   "phone": "8 (4842) 701-000",
   "id": 773
 },
 {
   "code": 10000343792,
   "name": "ДО № 1",
   "city": "Калуга [145]",
   "activity": "Да",
   "address": "улица Тарутинская, дом 184а",
   "currency": "EUR / RUB / USD",
   "schedule": "пн.-пт.: 9:30-15:30",
   "metro": "",
   "latitude": 54.567446,
   "longitude": 36.305475,
   "sort": 201,
   "change_at": "29.05.2018 14:17:14",
   "phone": "8 (4842) 515-404",
   "id": 774
 },
 {
   "code": 10000343801,
   "name": "ДО № 3",
   "city": "Калуга [145]",
   "activity": "Да",
   "address": "улица Кирова, дом 1, 2-й этаж (вход со стороны гостиницы «Калуга»)",
   "currency": "EUR / RUB / USD",
   "schedule": "пн.-пт.: 9:00-21:00, перерыв 14:00-15:00, сб.-вс.: 10:00-18:00, перерыв 14:00-15:00",
   "metro": "",
   "latitude": 54.516067,
   "longitude": 36.246689,
   "sort": 202,
   "change_at": "29.05.2018 14:17:27",
   "phone": "8 (4842) 549-936",
   "id": 775
 },
 {
   "code": 10000343802,
   "name": "ДО № 6",
   "city": "Калуга [145]",
   "activity": "Да",
   "address": "улица Кирова, дом 63",
   "currency": "EUR / RUB / USD",
   "schedule": "пн.-пт.: 9:00-21:00, сб.: 9:00-18:00",
   "metro": "",
   "latitude": 54.51314,
   "longitude": 36.27076,
   "sort": 203,
   "change_at": "29.05.2018 14:17:35",
   "phone": "8 (4842) 591-051",
   "id": 776
 },
 {
   "code": 10000343816,
   "name": "ДО № 12",
   "city": "Калуга [145]",
   "activity": "Да",
   "address": "улица Кирова, дом 19, ТРЦ «РИО»",
   "currency": "EUR / RUB / USD",
   "schedule": "пн.-вс.: 10:00-22:00",
   "metro": "",
   "latitude": 54.515419,
   "longitude": 36.252133,
   "sort": 208,
   "change_at": "29.05.2018 14:17:47",
   "phone": "",
   "id": 777
 },
 {
   "code": 10000343820,
   "name": "ДО № 14 Правобережный",
   "city": "Калуга [145]",
   "activity": "Да",
   "address": "улица Генерала Попова, дом 13",
   "currency": "EUR / RUB / USD",
   "schedule": "пн.-пт.: 9:00-20:00, сб.: 11:00-15:30, вс.: выходной",
   "metro": "",
   "latitude": 54.491354,
   "longitude": 36.214682,
   "sort": 210,
   "change_at": "29.05.2018 14:18:06",
   "phone": "8 (4842) 22-10-38",
   "id": 778
 },
 {
   "code": 3,
   "name": "Реутов (офис)",
   "city": "Реутов [146]",
   "activity": "Да",
   "address": "улица Южная, дом 10",
   "currency": "EUR / RUB / USD",
   "schedule": "пн.-пт.: 9:00-20:00, сб.: 10:00-18:00",
   "metro": "Новокосино, Новигиреево, Выхино",
   "latitude": 55.74698,
   "longitude": 37.86157,
   "sort": 18,
   "change_at": "29.05.2018 14:12:29",
   "phone": "8 (495) 777-59-98",
   "id": 736
 },
 {
   "code": 22,
   "name": "РИО Реутов (офис)",
   "city": "Реутов [146]",
   "activity": "Да",
   "address": "2-й км МКАД, дом 2, ТК «Шоколад»",
   "currency": "EUR / RUB / USD",
   "schedule": "пн.-вс.: 10:00-22:00",
   "metro": "Новокосино, Новигиреево, Перово",
   "latitude": 55.765473,
   "longitude": 37.843157,
   "sort": 19,
   "change_at": "29.05.2018 14:14:05",
   "phone": "8 (495) 363 22 53",
   "id": 751
 },
 {
   "code": 10000161833,
   "name": "Филиал в г. Ярославль",
   "city": "Ярославль [147]",
   "activity": "Да",
   "address": "Которосльная набережная, дом 55",
   "currency": "EUR / RUB / USD",
   "schedule": "пн.-пт.: 9:00-17:30",
   "metro": "",
   "latitude": 57.6167,
   "longitude": 39.8644,
   "sort": 300,
   "change_at": "29.05.2018 14:14:59",
   "phone": "",
   "id": 762
 },
 {
   "code": 10000258453,
   "name": "ДО «Центральный»",
   "city": "Ярославль [147]",
   "activity": "Да",
   "address": "улица Гоголя, дом 2",
   "currency": "EUR / RUB / USD",
   "schedule": "пн.-пт.: 10:00-20:00",
   "metro": "",
   "latitude": 57.59149,
   "longitude": 39.86718,
   "sort": 301,
   "change_at": "29.05.2018 14:15:23",
   "phone": "",
   "id": 763
 },
 {
   "code": 10000258451,
   "name": "ДО «Октябрьский»",
   "city": "Ярославль [147]",
   "activity": "Да",
   "address": "улица Советская, дом 21",
   "currency": "EUR / RUB / USD",
   "schedule": "пн.-вс.: 09:30-20:00",
   "metro": "",
   "latitude": 57.63224,
   "longitude": 39.88596,
   "sort": 302,
   "change_at": "29.05.2018 14:15:56",
   "phone": "",
   "id": 764
 },
 {
   "code": 10000258446,
   "name": "ДО «Московский»",
   "city": "Ярославль [147]",
   "activity": "Да",
   "address": "Московский проспект, дом 108",
   "currency": "EUR / RUB / USD",
   "schedule": "пн.-вс.: 09:30-20:00",
   "metro": "",
   "latitude": 57.57677,
   "longitude": 39.84312,
   "sort": 303,
   "change_at": "29.05.2018 14:16:05",
   "phone": "",
   "id": 765
 },
 {
   "code": 10000258449,
   "name": "ДО «Тутаевский»",
   "city": "Ярославль [147]",
   "activity": "Да",
   "address": "Тутаевское шоссе, дом 1, ТРЦ «РИО»",
   "currency": "EUR / RUB / USD",
   "schedule": "пн.-вс.: 09:30-20:00",
   "metro": "",
   "latitude": 57.67031,
   "longitude": 39.83809,
   "sort": 304,
   "change_at": "29.05.2018 14:16:16",
   "phone": "",
   "id": 766
 },
 {
   "code": 10000226820,
   "name": "ОО «Сочи»",
   "city": "Сочи [148]",
   "activity": "Да",
   "address": "улица Несебрская, дом 1А, ТЦ Grand Marina",
   "currency": "EUR / RUB / USD",
   "schedule": "пн.-вс.: 9:00-21:00",
   "metro": "",
   "latitude": 43.585215,
   "longitude": 39.716469,
   "sort": 602,
   "change_at": "22.06.2017 13:13:24",
   "phone": "8 (862) 266-56-90",
   "id": 748
 },
 {
   "code": 10000260223,
   "name": "ОО «Адлер»",
   "city": "Сочи [148]",
   "activity": "Да",
   "address": "улица Старонасыпная, дом 22",
   "currency": "EUR / RUB / USD",
   "schedule": "пн.-пт.: 9:00-18:00",
   "metro": "",
   "latitude": 43.426927,
   "longitude": 39.927766,
   "sort": 603,
   "change_at": "27.09.2017 17:01:46",
   "phone": "8 (862) 291-88-32",
   "id": 749
 },
 {
   "code": 10000256203,
   "name": "ОКВКУ «Сити Плаза»",
   "city": "Сочи [148]",
   "activity": "Да",
   "address": "улица Кирова, дом 58, ТЦ «Сити Плаза»",
   "currency": "EUR / RUB / USD",
   "schedule": "пн.-вс.: 10:00-21:00",
   "metro": "",
   "latitude": 43.428205,
   "longitude": 39.926822,
   "sort": 604,
   "change_at": "22.06.2017 13:13:49",
   "phone": "8 (862) 291-88-30",
   "id": 750
 },
 {
   "code": 10000675034,
   "name": "ОКВКУ «Горки город»",
   "city": "Сочи [148]",
   "activity": "Да",
   "address": "Адлерский район, с. Эсто-Садок, улица Горная Карусель, дом 3",
   "currency": "EUR / RUB / USD",
   "schedule": "пн.-вс.: 10:00-21:45",
   "metro": "",
   "latitude": 43.68381,
   "longitude": 40.263156,
   "sort": 611,
   "change_at": "12.10.2017 14:26:43",
   "phone": "8 (800) 100 9889",
   "id": 4153
 },
 {
   "code": 10000343813,
   "name": "ДО № 8",
   "city": "Воротынск [149]",
   "activity": "Да",
   "address": "улица Школьная, дом 17",
   "currency": "EUR / RUB / USD",
   "schedule": "пн.-сб.: 9:00-19:00, вс.: выходной",
   "metro": "",
   "latitude": 54.471336,
   "longitude": 36.037795,
   "sort": 205,
   "change_at": "29.05.2018 14:18:17",
   "phone": "8 (4842) 764-862",
   "id": 779
 },
 {
   "code": 10000343811,
   "name": "ДО № 7 Обнинский",
   "city": "Обнинск [150]",
   "activity": "Да",
   "address": "проспект Маркса, дом 73а",
   "currency": "EUR / RUB / USD",
   "schedule": "пн.-пт.: 9:00-19:00, сб.: 09:30-16:30, обед 13:00-13:30, вс.: выходной",
   "metro": "",
   "latitude": 55.121026,
   "longitude": 36.603617,
   "sort": 204,
   "change_at": "29.05.2018 14:37:27",
   "phone": "8 (48439) 26-226",
   "id": 780
 },
 {
   "code": 10000343815,
   "name": "ДО № 11",
   "city": "Обнинск [150]",
   "activity": "Да",
   "address": "Киевское шоссе, дом 33",
   "currency": "EUR / RUB / USD",
   "schedule": "Пн.-пт.: 09.30-17.30, перерыв 13.00 -14.00, сб. вс.: выходные дни",
   "metro": "",
   "latitude": 55.110965,
   "longitude": 36.640672,
   "sort": 207,
   "change_at": "29.05.2018 14:38:25",
   "phone": "8 (48439) 9-04-68",
   "id": 781
 },
 {
   "code": 10000343817,
   "name": "ДО № 13 Балабановский",
   "city": "Балабаново [151]",
   "activity": "Да",
   "address": "улица 1 Мая, дом 2",
   "currency": "EUR / RUB / USD",
   "schedule": "пн. - пт.: 9:00-19:00, без перерыва сб.: 9:00-18:00, без перерыва вс.: 9:00-17:00, перерыв 12.30-13.00",
   "metro": "",
   "latitude": 55.17791,
   "longitude": 36.658288,
   "sort": 209,
   "change_at": "29.05.2018 14:38:41",
   "phone": "8 (48438) 6-05-29",
   "id": 782
 },
 {
   "code": 10000343830,
   "name": "ОО «Коломенский»",
   "city": "Коломна [152]",
   "activity": "Да",
   "address": "улица Гагарина, дом 7«а», корпус 2, помещение 91",
   "currency": "EUR / RUB / USD",
   "schedule": "пн.-сб.: 09:00-19:00, обед 14:00-15:00, вс.: выходной",
   "metro": "",
   "latitude": 55.083905,
   "longitude": 38.795084,
   "sort": 212,
   "change_at": "16.10.2017 14:08:26",
   "phone": "8 (496) 619-28-52",
   "id": 788
 },
 {
   "code": 10000471844,
   "name": "ОКВКУ «Коломенская»",
   "city": "Коломна [152]",
   "activity": "Да",
   "address": "улица Октябрьской революции, дом 362",
   "currency": "EUR / RUB / USD",
   "schedule": " пн.- вс.: 10:00-22:00",
   "metro": "",
   "latitude": 55.08408,
   "longitude": 38.800142,
   "sort": 219,
   "change_at": "16.10.2017 14:11:42",
   "phone": "8 (496) 616-98-76",
   "id": 789
 },
 {
   "code": 10000343831,
   "name": "ОО «Наро-Фоминский»",
   "city": "Наро-Фоминск [153]",
   "activity": "Да",
   "address": "улица Маршала Жукова, дом 8",
   "currency": "EUR / RUB / USD",
   "schedule": "пн.-пт.: 9:00-19:00, без перерыва сб.: 9:00-19:00 обед 13:00-14:00, вс.: выходной",
   "metro": "",
   "latitude": 55.384436,
   "longitude": 36.723856,
   "sort": 213,
   "change_at": "16.10.2017 13:52:29",
   "phone": "8 (49634) 34-583",
   "id": 790
 },
 {
   "code": 10000477335,
   "name": "ОО «Армавир»",
   "city": "Армавир [154]",
   "activity": "Да",
   "address": "улица Кирова, дом 58, гостиница «Армавир»",
   "currency": "EUR / RUB / USD",
   "schedule": "пн.-пт.: 9:00-20:00, сб.: 10:00-16:00",
   "metro": "",
   "latitude": 44.996978,
   "longitude": 41.128304,
   "sort": 610,
   "change_at": "22.06.2017 13:14:42",
   "phone": "8 (86137) 6-30-72",
   "id": 794
 },
 {
   "code": 10000554917,
   "name": "ОО «Балашиха»",
   "city": "Балашиха [2426]",
   "activity": "Да",
   "address": "проспект Ленина, дом 8",
   "currency": "EUR / RUB / USD",
   "schedule": "пн.-пт.: 10:00-20:00, сб.-вс.: 10:00-18:00",
   "metro": "",
   "latitude": 55.796663,
   "longitude": 37.933501,
   "sort": 211,
   "change_at": "16.10.2017 14:17:56",
   "phone": "8 (495) 524-14-15",
   "id": 2424
 },
 {
   "code": 10000789489,
   "name": "ОО «Тамбовский»",
   "city": "Тамбов [249]",
   "activity": "Да",
   "address": "улица Советская, дом 99-А, ТРЦ «РИО», секция А-16, 1-й этаж",
   "currency": "EUR / RUB / USD",
   "schedule": "пн.-вс.: 10:00-22:00",
   "metro": "",
   "latitude": 52.72423,
   "longitude": 41.457259,
   "sort": 410,
   "change_at": "05.06.2018 09:00:51",
   "phone": "8 (4752) 504-915",
   "id": 12490
 },
 {
   "code": 10000476334,
   "name": "ДО «Олимпик плаза»",
   "city": "Санкт-Петербург [3]",
   "activity": "Да",
   "address": "улица Стремянная, дом 21/5, литера А",
   "currency": "EUR / RUB / USD",
   "schedule": "пн.-пт.: 9:00-21:00, сб.: 11:00-21:00 вс.: выходной",
   "metro": "Маяковская",
   "latitude": 59.930297,
   "longitude": 30.353969,
   "sort": 701,
   "change_at": "01.06.2018 16:12:32",
   "phone": "",
   "id": 792
 },
 {
   "code": 10000220417,
   "name": "Филиал в г. Санкт-Петербург",
   "city": "Санкт-Петербург [3]",
   "activity": "Да",
   "address": "улица Фучика, дом 2, литера А",
   "currency": "EUR / RUB / USD",
   "schedule": "пн.-вс.: 10:00-21:30",
   "metro": "Бухарестская, Международная",
   "latitude": 59.877971,
   "longitude": 30.355763,
   "sort": 700,
   "change_at": "29.05.2018 14:40:03",
   "phone": "",
   "id": 793
 },
 {
   "code": 41,
   "name": "Тверь (офис)",
   "city": "Тверь [38]",
   "activity": "Да",
   "address": "площадь Гагарина, дом 5, ТРЦ «РИО»",
   "currency": "EUR / RUB / USD",
   "schedule": "пн.-вс.: 10:00-21:30",
   "metro": "",
   "latitude": 56.847282,
   "longitude": 35.944003,
   "sort": 29,
   "change_at": "29.05.2018 14:11:55",
   "phone": "",
   "id": 733
 },
 {
   "code": 10000343832,
   "name": "ОО «Подольский»",
   "city": "Подольск [39]",
   "activity": "Да",
   "address": "проспект Ленина, дом 111, помещение 2",
   "currency": "EUR / RUB / USD",
   "schedule": "пн.-пт.: 9:00-19:00, сб.: 10:00-17:00 обед 13:00-13:30, вс.: выходной",
   "metro": "",
   "latitude": 55.431984,
   "longitude": 37.547459,
   "sort": 214,
   "change_at": "16.10.2017 13:46:33",
   "phone": "8 (496) 763-99-49",
   "id": 791
 },
 {
   "code": 20,
   "name": "Ленинградский (офис)",
   "city": "Москва [4]",
   "activity": "Да",
   "address": "Ленинградское шоссе, дом 25",
   "currency": "EUR / RUB / USD",
   "schedule": "пн.-вс.: 9:30-20:30",
   "metro": "Войковская",
   "latitude": 55.82801,
   "longitude": 37.48939,
   "sort": 11,
   "change_at": "29.05.2018 14:10:06",
   "phone": "8 (495) 363 2265",
   "id": 711
 },
 {
   "code": 33,
   "name": "ОКВКУ «Бухта» (ТРК «Бухта», ДО «Дмитровский»)",
   "city": "Москва [4]",
   "activity": "Да",
   "address": "Дмитровское шоссе, дом 165, корпус 1, 1 этаж, секция №301",
   "currency": "EUR / RUB / USD",
   "schedule": "пн.-вс.: 8:00-18:00",
   "metro": "Алтуфьево",
   "latitude": 55.91433,
   "longitude": 37.53984,
   "sort": 60,
   "change_at": "30.05.2017 16:59:30",
   "phone": "",
   "id": 714
 },
 {
   "code": 39,
   "name": "Дирижабль (офис)",
   "city": "Москва [4]",
   "activity": "Да",
   "address": "улица Профсоюзная, дом 64, корпус 2",
   "currency": "EUR / RUB / USD",
   "schedule": "пн.-пт.: 9:00-21:00, сб.-вс.: 10:00-18:00",
   "metro": "Новые Черёмушки",
   "latitude": 55.66598,
   "longitude": 37.54883,
   "sort": 3,
   "change_at": "29.05.2018 14:09:10",
   "phone": "8 (495) 204 4610",
   "id": 715
 },
 {
   "code": 13,
   "name": "Дмитровский (офис)",
   "city": "Москва [4]",
   "activity": "Да",
   "address": "Дмитровское шоссе, дом 163А, ТРЦ «РИО»",
   "currency": "EUR / RUB / USD",
   "schedule": "пн.-вс.: 10:00-21:00",
   "metro": "Алтуфьево",
   "latitude": 55.90906,
   "longitude": 37.53924,
   "sort": 4,
   "change_at": "29.05.2018 14:10:19",
   "phone": "8 (800) 100 9889",
   "id": 716
 },
 {
   "code": 51,
   "name": "ОКВКУ № 5 (ТРЦ «РИО», ДО «Дмитровский»)",
   "city": "Москва [4]",
   "activity": "Да",
   "address": "Дмитровское шоссе, дом 163А, корпус 1, ТРЦ «РИО», 1 этаж, секция А36а",
   "currency": "EUR / RUB / USD",
   "schedule": "пн.-вс.: 10:00-21:00",
   "metro": "",
   "latitude": 55.909781,
   "longitude": 37.540757,
   "sort": 51,
   "change_at": "31.05.2017 10:19:00",
   "phone": "",
   "id": 717
 },
 {
   "code": 52,
   "name": "ОКВКУ № 9 (ТРЦ «РИО», ДО «Дмитровский»)",
   "city": "Москва [4]",
   "activity": "Да",
   "address": "Дмитровское шоссе, дом 163А, корпус 1, ТРЦ «РИО», 1 этаж, секция А74b",
   "currency": "EUR / RUB / USD",
   "schedule": "пн.-вс.: 10:00-21:00",
   "metro": "",
   "latitude": 55.910022,
   "longitude": 37.542462,
   "sort": 53,
   "change_at": "31.05.2017 10:19:42",
   "phone": "",
   "id": 718
 },
 {
   "code": 30,
   "name": "Ереван-Плаза (офис)",
   "city": "Москва [4]",
   "activity": "Нет",
   "address": "улица Большая Тульская, дом 13, МТЦ «Ереван Плаза»",
   "currency": "EUR / RUB / USD",
   "schedule": "ежедневно с 10.00 до 21.45",
   "metro": "Тульская",
   "latitude": 55.708729,
   "longitude": 37.622091,
   "sort": 4,
   "change_at": "29.05.2018 14:10:27",
   "phone": "8 (800) 100 9889",
   "id": 719
 },
 {
   "code": 9,
   "name": "Жулебино (офис)",
   "city": "Москва [4]",
   "activity": "Да",
   "address": "улица Генерала Кузнецова, дом 27, корпус 1",
   "currency": "EUR / RUB / USD",
   "schedule": "пн.-пт.: 9:00-20:00, сб.: 10:00-18:00",
   "metro": "Жулебино",
   "latitude": 55.68125,
   "longitude": 37.85227,
   "sort": 5,
   "change_at": "29.05.2018 14:10:40",
   "phone": "8 (495) 228 19 57",
   "id": 720
 },
 {
   "code": 36,
   "name": "Зубовский бульвар (головной офис)",
   "city": "Москва [4]",
   "activity": "Да",
   "address": "Зубовский бульвар, дом 25",
   "currency": "EUR / RUB / USD",
   "schedule": "пн.-пт.: 9:00-20:00, сб.: 10:00-18:00, вс.: 10:00-18:00 (кассы)",
   "metro": "Парк культуры",
   "latitude": 55.7365,
   "longitude": 37.59007,
   "sort": 0,
   "change_at": "29.05.2018 14:05:31",
   "phone": "8 (800) 100 9889",
   "id": 721
 },
 {
   "code": 7,
   "name": "Измайловский (офис)",
   "city": "Москва [4]",
   "activity": "Да",
   "address": "улица 9-я Парковая, дом 39",
   "currency": "EUR / RUB / USD",
   "schedule": "пн.-пт.: 9:00-20:00, сб.: 10:00-18:00",
   "metro": "Первомайская, Щелковская",
   "latitude": 55.800468,
   "longitude": 37.798484,
   "sort": 8,
   "change_at": "29.05.2018 14:10:48",
   "phone": "8 (800) 100 9889",
   "id": 722
 },
 {
   "code": 11,
   "name": "Китай-город (офис)",
   "city": "Москва [4]",
   "activity": "Да",
   "address": "Подколокольный переулок, дом 13, строение 1",
   "currency": "EUR / RUB / USD",
   "schedule": "пн.-пт.: 9:00-20:00, сб.: 10:00-18:00",
   "metro": "Китай-город, Курская",
   "latitude": 55.753027,
   "longitude": 37.645025,
   "sort": 9,
   "change_at": "29.05.2018 14:10:57",
   "phone": "8 (800) 100 9889",
   "id": 723
 },
 {
   "code": 31,
   "name": "Ленинский (офис)",
   "city": "Москва [4]",
   "activity": "Да",
   "address": "Ленинский проспект, дом 109, ТРЦ «РИО»",
   "currency": "EUR / RUB / USD",
   "schedule": "пн.-вс.: 10:00-21:45",
   "metro": "Проспект Вернадского,Калужская",
   "latitude": 55.66384,
   "longitude": 37.51131,
   "sort": 10,
   "change_at": "29.05.2018 14:08:58",
   "phone": "",
   "id": 724
 },
 {
   "code": 16,
   "name": "Медведково (офис)",
   "city": "Москва [4]",
   "activity": "Да",
   "address": "улица Полярная, дом 3, корпус 1",
   "currency": "EUR / RUB / USD",
   "schedule": "пн.-пт.: 9:00-20:00, сб.: 10:00-18:00",
   "metro": "Бабушкинская",
   "latitude": 55.8725,
   "longitude": 37.63698,
   "sort": 12,
   "change_at": "29.05.2018 14:11:08",
   "phone": "8 (495) 228-1978; 8 (499) 473-1679",
   "id": 725
 },
 {
   "code": 14,
   "name": "Митино (офис)",
   "city": "Москва [4]",
   "activity": "Да",
   "address": "Пятницкое шоссе, дом 9",
   "currency": "EUR / RUB / USD",
   "schedule": "пн.-пт.: 9:00-20:00, сб.: 10:00-18:00",
   "metro": "Волоколамская",
   "latitude": 55.83942,
   "longitude": 37.38534,
   "sort": 13,
   "change_at": "29.05.2018 14:11:16",
   "phone": "8 (495) 228-19-54",
   "id": 726
 },
 {
   "code": 47,
   "name": "ОКВКУ № 15 (кафе «Му-Му»)",
   "city": "Москва [4]",
   "activity": "Да",
   "address": "улица Бауманская, дом 35/1, кафе «Му-Му»",
   "currency": "EUR / RUB / USD",
   "schedule": "пн.-пт.: 08:30-20:30, сб.-вс.: 09:00-18:00",
   "metro": "Электрозаводская, Бауманская",
   "latitude": 55.77174,
   "longitude": 37.679043,
   "sort": 57,
   "change_at": "27.09.2017 10:20:10",
   "phone": "",
   "id": 727
 },
 {
   "code": 10,
   "name": "ОКВКУ № 1 (ТРЦ «Ереван-Плаза», 1 этаж)",
   "city": "Москва [4]",
   "activity": "Да",
   "address": "улица Большая Тульская, дом 13, ТРЦ «Ереван Плаза», 1 этаж, секция А-50",
   "currency": "EUR / RUB / USD",
   "schedule": "пн.-вс.: 10:00-21:45",
   "metro": "Тульская",
   "latitude": 55.708729,
   "longitude": 37.622091,
   "sort": 50,
   "change_at": "31.05.2017 09:34:02",
   "phone": "",
   "id": 728
 },
 {
   "code": 61,
   "name": "ОКВКУ \"Волна\"",
   "city": "Москва [4]",
   "activity": "Да",
   "address": "улица Салтыковская, дом 49а, ТЦ \"Волна\"",
   "currency": "EUR / RUB / USD",
   "schedule": "пн.-вс.: 10:00-21:45",
   "metro": "Новокосино",
   "latitude": 55.74521,
   "longitude": 37.880015,
   "sort": 56,
   "change_at": "07.05.2018 10:16:21",
   "phone": "8 (800) 100 9889",
   "id": 729
 },
 {
   "code": 12,
   "name": "ОКВКУ № 8 (ТРЦ «Принц-Плаза», ДО «Принц-Плаза»)",
   "city": "Москва [4]",
   "activity": "Да",
   "address": "улица Профсоюзная, дом 129а, ТРК «Принц Плаза», 1 этаж",
   "currency": "EUR / RUB / USD",
   "schedule": "пн.-вс.: 10:00-21:30",
   "metro": "Теплый Стан",
   "latitude": 55.61813,
   "longitude": 37.50748,
   "sort": 52,
   "change_at": "31.05.2017 09:45:23",
   "phone": "",
   "id": 730
 },
 {
   "code": 50,
   "name": "Принц-Плаза (офис)",
   "city": "Москва [4]",
   "activity": "Да",
   "address": "улица Профсоюзная, дом 129а, ТРК «Принц Плаза», 1 этаж",
   "currency": "EUR / RUB / USD",
   "schedule": "пн.-вс.: 10:00-21:30",
   "metro": "Теплый Стан",
   "latitude": 55.61813,
   "longitude": 37.50748,
   "sort": 16,
   "change_at": "29.05.2018 14:11:26",
   "phone": "",
   "id": 731
 },
 {
   "code": 23,
   "name": "Новоясеневский (офис)",
   "city": "Москва [4]",
   "activity": "Да",
   "address": "Новоясеневский проспект, дом 1Б, корпус 1",
   "currency": "EUR / RUB / USD",
   "schedule": "пн.-вс.: 8:00-20:00",
   "metro": "Теплый Стан",
   "latitude": 55.61766,
   "longitude": 37.50867,
   "sort": 14,
   "change_at": "29.05.2018 14:11:43",
   "phone": "",
   "id": 732
 },
 {
   "code": 38,
   "name": "Пражский (офис)",
   "city": "Москва [4]",
   "activity": "Да",
   "address": "улица Красного Маяка, дом 2Б",
   "currency": "EUR / RUB / USD",
   "schedule": "пн.-вс.: 10:00-21:45",
   "metro": "Пражская",
   "latitude": 55.61108,
   "longitude": 37.6068,
   "sort": 15,
   "change_at": "29.05.2018 14:12:14",
   "phone": "7 (495) 204 46 11",
   "id": 735
 },
 {
   "code": 28,
   "name": "Рублевский (офис)",
   "city": "Москва [4]",
   "activity": "Да",
   "address": "Рублевское ш., дом 62, ТЦ «ЕвроПарк»",
   "currency": "EUR / RUB / USD",
   "schedule": "пн.-вс.: 10:00-21:45",
   "metro": "Крылатское",
   "latitude": 55.76666,
   "longitude": 37.38158,
   "sort": 20,
   "change_at": "29.05.2018 14:12:36",
   "phone": "8 (800) 100 98 89",
   "id": 737
 },
 {
   "code": 42,
   "name": "Румянцево (офис)",
   "city": "Москва [4]",
   "activity": "Да",
   "address": "Киевское шоссе 23 км, владение 8, строение 1, ТРЦ «РИО», секция 1-36",
   "currency": "EUR / RUB / USD",
   "schedule": "пн.-вс.: 10:00-21:45",
   "metro": "Румянцево, Саларьево",
   "latitude": 55.62994,
   "longitude": 37.42385,
   "sort": 21,
   "change_at": "29.05.2018 14:12:45",
   "phone": "8 (495) 204 4612",
   "id": 738
 },
 {
   "code": 29,
   "name": "Тверской (офис)",
   "city": "Москва [4]",
   "activity": "Да",
   "address": "улица Тверская, дом 6, с.2",
   "currency": "EUR / RUB / USD",
   "schedule": "пн.-пт.: 9:00-20:00, сб.: 10:00-18:00",
   "metro": "Тверская, Охотный ряд",
   "latitude": 55.761726,
   "longitude": 37.611031,
   "sort": 22,
   "change_at": "29.05.2018 14:12:53",
   "phone": "8 (495) 363 22 57",
   "id": 739
 },
 {
   "code": 43,
   "name": "Цветной бульвар (офис)",
   "city": "Москва [4]",
   "activity": "Да",
   "address": "Цветной бульвар, дом 2",
   "currency": "EUR / RUB / USD",
   "schedule": "пн.-пт.: 9:00-20:00, сб.: 10:00-18:00",
   "metro": "Трубная, Цветной бульвар",
   "latitude": 55.768053,
   "longitude": 37.622963,
   "sort": 23,
   "change_at": "29.05.2018 14:13:02",
   "phone": "8 (495) 204 46 14",
   "id": 740
 },
 {
   "code": 5,
   "name": "Черемушки (офис)",
   "city": "Москва [4]",
   "activity": "Да",
   "address": "улица Большая Черемушкинская, дом 1, ТРЦ «РИО»",
   "currency": "EUR / RUB / USD",
   "schedule": "пн.-вс.: 10:00-21:45",
   "metro": "Академическая, Ленинский пр-т",
   "latitude": 55.689507,
   "longitude": 37.602514,
   "sort": 24,
   "change_at": "29.05.2018 14:13:12",
   "phone": "8 (495) 980-4955",
   "id": 741
 },
 {
   "code": 26,
   "name": "Шаболовский 1 (офис)",
   "city": "Москва [4]",
   "activity": "Да",
   "address": "улица Шухова, дом 21",
   "currency": "EUR / RUB / USD",
   "schedule": "пн.-пт.: 9:00-20:00, сб.: 10:00-18:00",
   "metro": "Шаболовская",
   "latitude": 55.716351,
   "longitude": 37.608805,
   "sort": 25,
   "change_at": "29.05.2018 14:13:21",
   "phone": "+7 (495) 225-13-89",
   "id": 742
 },
 {
   "code": 27,
   "name": "Шереметьевский (офис)",
   "city": "Москва [4]",
   "activity": "Да",
   "address": "улица Шереметьевская, дом 6 корпус 1, ТРЦ «Райкин Плаза»",
   "currency": "EUR / RUB / USD",
   "schedule": "пн.-вс.: 10:00-21:45",
   "metro": "Марьина Роща",
   "latitude": 55.7953,
   "longitude": 37.6171,
   "sort": 26,
   "change_at": "29.05.2018 14:13:29",
   "phone": "8 (495) 228 19 46",
   "id": 743
 },
 {
   "code": 15,
   "name": "Юго-западный (офис)",
   "city": "Москва [4]",
   "activity": "Да",
   "address": " улица Намёткина, дом 12А",
   "currency": "EUR / RUB / USD",
   "schedule": "пн.-пт.: 9:00-20:00, сб.: 10:00-17:00",
   "metro": "Новые Черёмушки",
   "latitude": 55.66155,
   "longitude": 37.55474,
   "sort": 27,
   "change_at": "29.05.2018 14:13:38",
   "phone": "8 (495) 363 22 76",
   "id": 744
 },
 {
   "code": 44,
   "name": "Проспект Вернадского (офис)",
   "city": "Москва [4]",
   "activity": "Да",
   "address": "Проспект Вернадского, дом 86А, ТРЦ AVENUE, 1-й этаж.",
   "currency": "EUR / RUB / USD",
   "schedule": "пн.-вс.: 10:00-21:45",
   "metro": "Юго-Западная (Южный выход)",
   "latitude": 55.663019,
   "longitude": 37.480993,
   "sort": 17,
   "change_at": "29.05.2018 14:13:52",
   "phone": "+7 (495) 204-46-13",
   "id": 745
 },
 {
   "code": 48,
   "name": "ОКВКУ № 16 (ТРЦ Columbus, ДО «Пражский»)",
   "city": "Москва [4]",
   "activity": "Да",
   "address": "улица Кировоградская, дом 13А, ТРЦ Columbus",
   "currency": "EUR / RUB / USD",
   "schedule": "пн.-вс.: 10:00-21:45",
   "metro": "Пражская",
   "latitude": 55.61346,
   "longitude": 37.60637,
   "sort": 58,
   "change_at": "27.09.2017 17:09:11",
   "phone": "",
   "id": 747
 },
 {
   "code": 25,
   "name": "ОКВКУ № 11 (ТРЦ «Шоколад» 1 этаж, ДО «РИО-Реутов»)",
   "city": "Москва [4]",
   "activity": "Да",
   "address": "2-й км МКАД, дом 2 (внешняя сторона, ТРЦ «Шоколад»)",
   "currency": "EUR / RUB / USD",
   "schedule": "пн.-вс.: 10:00-22:00",
   "metro": "",
   "latitude": 55.763802,
   "longitude": 37.84499,
   "sort": 54,
   "change_at": "12.10.2017 14:04:35",
   "phone": "",
   "id": 1762
 },
 {
   "code": 24,
   "name": "ОКВКУ № 13 (ТРЦ «Шоколад» 3 этаж, ДО «РИО-Реутов»)",
   "city": "Москва [4]",
   "activity": "Да",
   "address": "2-й км МКАД, дом 2 (внешняя сторона, ТРЦ «Шоколад»)",
   "currency": "EUR / RUB / USD",
   "schedule": "пн.-вс.: 10:00-22:00",
   "metro": "",
   "latitude": 55.763802,
   "longitude": 37.84499,
   "sort": 55,
   "change_at": "12.10.2017 14:04:43",
   "phone": "",
   "id": 1763
 },
 {
   "code": 54,
   "name": "ОКВКУ «Ереван Плаза» (ТРЦ «Ереван-Плаза», 1 этаж)",
   "city": "Москва [4]",
   "activity": "Да",
   "address": "улица Большая Тульская, дом 13, ТРЦ «Ереван-Плаза», 1 этаж, секция А-26Б",
   "currency": "EUR / RUB / USD",
   "schedule": "пн.-вс.: 10:00-21:45",
   "metro": "Тульская",
   "latitude": 55.708729,
   "longitude": 37.622091,
   "sort": 62,
   "change_at": "12.10.2017 14:04:14",
   "phone": "",
   "id": 2229
 },
 {
   "code": 56,
   "name": "Красная Пресня (офис)",
   "city": "Москва [4]",
   "activity": "Да",
   "address": "улица Красная Пресня, дом 22",
   "currency": "EUR / RUB / USD",
   "schedule": "пн.-пт.: 9:00-20:00, сб.: 10:00-18:00",
   "metro": "Краснопресненская, Ул. 1905 года, Баррикадная",
   "latitude": 55.762085,
   "longitude": 37.570501,
   "sort": 9,
   "change_at": "29.05.2018 14:40:16",
   "phone": "8 (495) 204-46-03",
   "id": 2321
 },
 {
   "code": 55,
   "name": "Нагатинский (Офис)",
   "city": "Москва [4]",
   "activity": "Да",
   "address": "Каширское шоссе, дом 14, (ТРЦ «ГУДЗОН»)",
   "currency": "EUR / RUB / USD",
   "schedule": "пн.-вс.: 10:00-22:00",
   "metro": "Нагатинская, Варшавская, Коломенская, Каховская, Нахимовский пр-т",
   "latitude": 55.664619,
   "longitude": 37.627014,
   "sort": 14,
   "change_at": "29.05.2018 14:40:41",
   "phone": "8 (800) 100 9889",
   "id": 2465
 },
 {
   "code": 57,
   "name": "ОКВКУ «Армада» (ДО «Пражский»)",
   "city": "Москва [4]",
   "activity": "Да",
   "address": "Кировоградская улица, дом 11, корпус 1, мебельный центр «Армада»",
   "currency": "EUR / RUB / USD",
   "schedule": "пн.-вс.: 10:00-22:00",
   "metro": "Пражская",
   "latitude": 55.614561,
   "longitude": 37.606622,
   "sort": 63,
   "change_at": "12.10.2017 14:04:01",
   "phone": "",
   "id": 3059
 },
 {
   "code": 53,
   "name": "ОКВКУ № 18 (ТЦ на Беговой)",
   "city": "Москва [4]",
   "activity": "Да",
   "address": "Хорошевское шоссе, дом 16, строение 3",
   "currency": "EUR / RUB / USD",
   "schedule": "пн.-вс.: 10:00-22:00",
   "metro": "Беговая",
   "latitude": 55.774284,
   "longitude": 37.546219,
   "sort": 59,
   "change_at": "12.10.2017 14:04:20",
   "phone": "",
   "id": 3202
 },
 {
   "code": 58,
   "name": "ОКВКУ №19",
   "city": "Москва [4]",
   "activity": "Да",
   "address": "Ходынский бульвар, дом 4 в ТЦ «Авиапарк»",
   "currency": "EUR / RUB / USD",
   "schedule": "пн.-вс.: 10:00-22:00",
   "metro": "Аэропорт",
   "latitude": 55.790464,
   "longitude": 37.530409,
   "sort": 64,
   "change_at": "12.10.2017 14:25:06",
   "phone": "",
   "id": 3721
 },
 {
   "code": 59,
   "name": "Марьинский (офис)",
   "city": "Москва [4]",
   "activity": "Да",
   "address": "улица Люблинская, дом 169, корпус 2",
   "currency": "EUR / RUB / USD",
   "schedule": "пн.-вс.: 10:00-21:30",
   "metro": "Марьино",
   "latitude": 55.649156,
   "longitude": 37.745093,
   "sort": 12,
   "change_at": "29.05.2018 14:41:17",
   "phone": "8 800 100 9889",
   "id": 3906
 },
 {
   "code": 62,
   "name": "ОКВКУ «ХОРОШО»",
   "city": "Москва [4]",
   "activity": "Да",
   "address": "г. Москва, Хорошёвское шоссе д. 27",
   "currency": "EUR / RUB / USD",
   "schedule": "пн.-вс.: 10:00–22:00",
   "metro": "Полежаевская",
   "latitude": 55.777084,
   "longitude": 37.523653,
   "sort": 65,
   "change_at": "11.01.2018 12:36:16",
   "phone": "8 (800) 100 9889",
   "id": 5933
 },
 {
   "code": 44,
   "name": "ОКВКУ № 17 (ТРЦ AVENUE, ДО «Проспект Вернадского»)",
   "city": "Москва [4]",
   "activity": "Да",
   "address": "Проспект Вернадского, дом 86А, ТРЦ AVENUE",
   "currency": "EUR / RUB / USD",
   "schedule": "пн.-вс.: 10:00-21:45",
   "metro": "Юго-Западная (Южный выход)",
   "latitude": 55.663019,
   "longitude": 37.480993,
   "sort": 58,
   "change_at": "11.12.2017 11:43:17",
   "phone": "+7 (495) 204-46-13",
   "id": 6130
 },
 {
   "code": 63,
   "name": "Пушкинский (офис)",
   "city": "Москва [4]",
   "activity": "Да",
   "address": "улица Тверская, дом 18, корпус 1",
   "currency": "EUR / RUB / USD",
   "schedule": "пн.-пт.: 9:00 - 21:00, сб., вс.: 10:00 - 19:00",
   "metro": "Пушкинская, Тверская",
   "latitude": 55.766147,
   "longitude": 37.604241,
   "sort": 17,
   "change_at": "29.05.2018 14:41:44",
   "phone": "8 (495) 363 2296",
   "id": 6599
 },
 {
   "code": 64,
   "name": "ОКВКУ «МАРТ»",
   "city": "Москва [4]",
   "activity": "Да",
   "address": "улица Большая Семеновская, дом 17а, ТЦ \"Март\"",
   "currency": "EUR / RUB / USD",
   "schedule": "пн.-вс.: 08:00–22:00",
   "metro": "Электрозаводская",
   "latitude": 55.782861,
   "longitude": 37.705841,
   "sort": 66,
   "change_at": "03.05.2018 10:26:34",
   "phone": "8 (800) 100 9889",
   "id": 11647
 },
 {
   "code": 66,
   "name": "ОКВКУ «РИВЬЕРА»",
   "city": "Москва [4]",
   "activity": "Да",
   "address": "улица Автозаводская, дом 18 (ТЦ \"Ривьера\")",
   "currency": "EUR / RUB / USD",
   "schedule": "пн.-вс.: 10:00-22:00",
   "metro": "Автозаводская",
   "latitude": 55.705051,
   "longitude": 37.642573,
   "sort": 67,
   "change_at": "13.06.2018 10:05:32",
   "phone": "",
   "id": 12535
 },
 {
   "code": 65,
   "name": "СИТИ (офис)",
   "city": "Москва [4]",
   "activity": "Да",
   "address": "Пресненская набережная, дом 2",
   "currency": "EUR / RUB / USD",
   "schedule": "пн.-пт.: 9:00-21:00 сб.-вс.: 10:00-19:00",
   "metro": "Деловой центр",
   "latitude": 55.74906,
   "longitude": 37.539347,
   "sort": 68,
   "change_at": "13.06.2018 09:08:00",
   "phone": "8(495) 204-46-18",
   "id": 12640
 },
 {
   "code": 10000246148,
   "name": "ОО «Краснодарский»",
   "city": "Краснодар [40]",
   "activity": "Да",
   "address": "улица им. Орджоникидзе, дом 41",
   "currency": "EUR / RUB / USD",
   "schedule": "пн.-пт.: 09:00-20:00, сб.: 10:00-16:00",
   "metro": "",
   "latitude": 45.02234,
   "longitude": 38.97142,
   "sort": 605,
   "change_at": "22.06.2017 13:14:17",
   "phone": "8 (861) 214-99-16",
   "id": 772
 },
 {
   "code": 10000480638,
   "name": "ОКВКУ «Лента-Краснодар»",
   "city": "Краснодар [40]",
   "activity": "Да",
   "address": "улица Восточный обход, дом 19, ТЦ «Лента»",
   "currency": "EUR / RUB / USD",
   "schedule": "пн.-вс.: 9:00-20:45, перерыв 13:00-14:00",
   "metro": "",
   "latitude": 45.037719,
   "longitude": 39.126728,
   "sort": 606,
   "change_at": "27.09.2017 10:30:57",
   "phone": "8 (861) 214-99-16",
   "id": 795
 },
 {
   "code": 10000490145,
   "name": "ОКВКУ «Лента-Краснодар 2»",
   "city": "Краснодар [40]",
   "activity": "Да",
   "address": "улица Российская, дом 257, ТЦ «Лента»",
   "currency": "EUR / RUB / USD",
   "schedule": "пн.-вс.: 09:00-20:45, перерыв 13:00-14:00",
   "metro": "",
   "latitude": 45.087148,
   "longitude": 39.012404,
   "sort": 607,
   "change_at": "12.10.2017 14:25:10",
   "phone": "8 (861) 214-99-16",
   "id": 1350
 },
 {
   "code": 10000161845,
   "name": "Филиал в г. Пермь",
   "city": "Пермь [41]",
   "activity": "Да",
   "address": "Комсомольский проспект, дом 1",
   "currency": "EUR / RUB / USD",
   "schedule": "пн.-пт.: 9:00-20:00, сб.: 10:00-16:00",
   "metro": "",
   "latitude": 58.016611,
   "longitude": 56.233222,
   "sort": 500,
   "change_at": "29.05.2018 14:14:15",
   "phone": "8 (342) 2-350-450",
   "id": 752
 },
 {
   "code": 10000241567,
   "name": "ДО «На Сибирской»",
   "city": "Пермь [41]",
   "activity": "Да",
   "address": "улица Сибирская, дом 16",
   "currency": "EUR / RUB / USD",
   "schedule": "пн.-пт.: 9:00-20:00, сб., вс.: 10:00-16:00",
   "metro": "",
   "latitude": 58.010727,
   "longitude": 56.24934,
   "sort": 501,
   "change_at": "29.05.2018 14:14:28",
   "phone": "",
   "id": 753
 },
 {
   "code": 10000320126,
   "name": "ОКВКУ «Заостровка»",
   "city": "Пермь [41]",
   "activity": "Да",
   "address": "улица Пожарная, дом 14",
   "currency": "EUR / RUB / USD",
   "schedule": "пн.-сб.: 09:00-17:30, обед 13:00-14:00, обед 13:00-14:00, вс.: выходной",
   "metro": "",
   "latitude": 57.999325,
   "longitude": 56.115558,
   "sort": 502,
   "change_at": "01.11.2017 09:07:24",
   "phone": "",
   "id": 754
 },
 {
   "code": 10000328458,
   "name": "ОКВКУ «Ярмарка»",
   "city": "Пермь [41]",
   "activity": "Да",
   "address": "шоссе Космонавтов, дом 8",
   "currency": "EUR / RUB / USD",
   "schedule": "пн.-пт.: 09:00-17:30, обед 13:00-14:00, сб.: 10:00-15:30, обед 13:00-13:30",
   "metro": "",
   "latitude": 58.002011,
   "longitude": 56.229125,
   "sort": 503,
   "change_at": "11.01.2018 12:35:13",
   "phone": "",
   "id": 755
 },
 {
   "code": 10000512332,
   "name": "ДО «Юрша»",
   "city": "Пермь [41]",
   "activity": "Да",
   "address": "улица Юрша, дом 80 (ТЦ «Квартет»)",
   "currency": "EUR / RUB / USD",
   "schedule": "пн.-пт.: 10:00-19:30, сб.: 11:00-17:30, вс. - выходной",
   "metro": "",
   "latitude": 58.002921,
   "longitude": 56.305607,
   "sort": 504,
   "change_at": "29.05.2018 14:14:43",
   "phone": "",
   "id": 756
 },
 {
   "code": 10000241540,
   "name": "ОО «Саранский»",
   "city": "Саранск [42]",
   "activity": "Да",
   "address": "улица Советская, дом 55А",
   "currency": "EUR / RUB / USD",
   "schedule": "пн.-вс.: 10:00-22:00",
   "metro": "",
   "latitude": 54.182174,
   "longitude": 45.180399,
   "sort": 505,
   "change_at": "30.10.2017 13:28:31",
   "phone": "8 (8342) 333 960",
   "id": 757
 },
 {
   "code": 10000484784,
   "name": "ОКВКУ «СИТИ-ПАРК»",
   "city": "Саранск [42]",
   "activity": "Да",
   "address": "улица Волгоградская, дом 71",
   "currency": "EUR / RUB / USD",
   "schedule": "пн.-вс.: 10:00-22:00",
   "metro": "",
   "latitude": 54.185631,
   "longitude": 45.216915,
   "sort": 506,
   "change_at": "27.09.2017 17:06:35",
   "phone": "8 (8342) 333-960",
   "id": 1331
 },
 {
   "code": 10000777737,
   "name": "ОКВКУ «НЕБО»",
   "city": "Нижний Новгород [43]",
   "activity": "Да",
   "address": "улица Большая Покровская, дом 82, ТРЦ «НЕБО»",
   "currency": "EUR / RUB / USD",
   "schedule": "пн.-вс.: 10:00-21:30, перерывы 13:00-13.30, 17:00-17:30",
   "metro": "",
   "latitude": 56.30884,
   "longitude": 43.987373,
   "sort": 508,
   "change_at": "16.04.2018 20:13:23",
   "phone": "",
   "id": 1351
 },
 {
   "code": 10000753968,
   "name": "ДО «Канавинский»",
   "city": "Нижний Новгород [43]",
   "activity": "Да",
   "address": "Московское шоссе, дом 12, ТРЦ \"РИО\", зона 24",
   "currency": "EUR / RUB / USD",
   "schedule": "пн.-пт.: 09:00-21:30, сб., вс.: 10:00-21:30",
   "metro": "",
   "latitude": 56.317942,
   "longitude": 43.925443,
   "sort": 507,
   "change_at": "29.05.2018 14:07:42",
   "phone": "8 (831) 211-27-54",
   "id": 3460
 },
 {
   "code": 10000753968,
   "name": "Филиал в г. Нижний Новгород",
   "city": "Нижний Новгород [43]",
   "activity": "Да",
   "address": "улица Ковалихинская, дом 8.",
   "currency": "EUR / RUB / USD",
   "schedule": "пн.-пт.: 09:00-20:00, сб., вс.: выходной",
   "metro": "Горьковская",
   "latitude": 56.323328,
   "longitude": 44.011457,
   "sort": 500,
   "change_at": "29.05.2018 14:41:31",
   "phone": "+7 (831) 216 1801, 8 (800) 100 9889",
   "id": 3972
 },
 {
   "code": 10000777742,
   "name": "ОКВКУ «Лента Нижний Новгород»",
   "city": "Нижний Новгород [43]",
   "activity": "Да",
   "address": "ул. Родионова, д. 200",
   "currency": "RUB",
   "schedule": "пн.-вс.: 10:00-21:30, перерывы 13:00-13.30, 17:00-17:30",
   "metro": "",
   "latitude": 56.300984,
   "longitude": 44.082756,
   "sort": 510,
   "change_at": "16.04.2018 20:13:50",
   "phone": "",
   "id": 6021
 },
 {
   "code": 10000258452,
   "name": "ДО «Рыбинский»",
   "city": "Рыбинск [45]",
   "activity": "Да",
   "address": "улица Герцена, дом 62 / улица Кирова, дом 9",
   "currency": "EUR / RUB / USD",
   "schedule": "пн.-вс.: 09:30-20:00",
   "metro": "",
   "latitude": 58.050088,
   "longitude": 38.833604,
   "sort": 306,
   "change_at": "29.05.2018 14:16:26",
   "phone": "",
   "id": 767
 },
 {
   "code": 10000547939,
   "name": "ОКВКУ «Сенная площадь»",
   "city": "Рыбинск [45]",
   "activity": "Да",
   "address": "улица Герцена, дом 62 / улица Кирова дом 9, ТЦ «Сенная площадь»",
   "currency": "EUR / RUB / USD",
   "schedule": "пн.-вс.: 10:00-20:30, обед 14:00-15:00",
   "metro": "",
   "latitude": 58.050088,
   "longitude": 38.833604,
   "sort": 307,
   "change_at": "12.10.2017 14:27:38",
   "phone": "8 (4855) 28-11-18",
   "id": 4351
 },
 {
   "code": 10000258447,
   "name": "ОО «Ивановский»",
   "city": "Иваново [46]",
   "activity": "Да",
   "address": "Кохомское шоссе, дом 1д, ТРЦ «РИО»",
   "currency": "EUR / RUB / USD",
   "schedule": "пн.-вс.: 09:00-19:00",
   "metro": "",
   "latitude": 56.956643,
   "longitude": 41.0416,
   "sort": 305,
   "change_at": "28.05.2018 10:02:59",
   "phone": "",
   "id": 768
 },
 {
   "code": 10000654918,
   "name": "ОКВКУ «№ 1»",
   "city": "Иваново [46]",
   "activity": "Да",
   "address": "улица Богдана Хмельницкого, дом 36 (в здании Центрального рынка)",
   "currency": "EUR / RUB / USD",
   "schedule": "пн.-пт.: 9:00-19:00, технические перерывы: 11:30-12:00, 15:30-16:00",
   "metro": "",
   "latitude": 56.989174,
   "longitude": 40.968243,
   "sort": 308,
   "change_at": "28.05.2018 10:03:50",
   "phone": "8 (4932) 55-81-33",
   "id": 4352
 },
 {
   "code": 10000259098,
   "name": "Филиал в г.Ставрополь",
   "city": "Ставрополь [47]",
   "activity": "Да",
   "address": "улица Мира, дом 319",
   "currency": "EUR / RUB / USD",
   "schedule": "пн.-пт.: 09:00-20:00, сб.: 10:00-16:00",
   "metro": "",
   "latitude": 45.037661,
   "longitude": 41.968717,
   "sort": 800,
   "change_at": "29.05.2018 14:16:43",
   "phone": "8 (8652) 225 165",
   "id": 769
 },
 {
   "code": 10000616211,
   "name": "ОКВКУ «Пассаж»",
   "city": "Ставрополь [47]",
   "activity": "Да",
   "address": "проспект Карла Маркса, дом 59",
   "currency": "EUR / RUB / USD",
   "schedule": "пн.-вс.: 09:00-20:00",
   "metro": "",
   "latitude": 45.049888,
   "longitude": 41.984752,
   "sort": 802,
   "change_at": "19.06.2017 16:02:11",
   "phone": "8 (8652) 225045",
   "id": 770
 },
 {
   "code": 10000567593,
   "name": "ДО «Космос»",
   "city": "Ставрополь [47]",
   "activity": "Да",
   "address": "улица Доваторцев, дом 75А, 1 этаж (Мегацентр \"Коsмос\")",
   "currency": "EUR / RUB / USD",
   "schedule": "пн.-вс.: 10:00-22:00",
   "metro": "",
   "latitude": 44.997445,
   "longitude": 41.92309,
   "sort": 801,
   "change_at": "29.05.2018 14:41:06",
   "phone": "8 (8652) 225 045",
   "id": 3212
 },
 {
   "code": 10000789471,
   "name": "ОО «Липецкий»",
   "city": "Липецк [48]",
   "activity": "Да",
   "address": "улица Зегеля, дом 44",
   "currency": "EUR / RUB / USD",
   "schedule": "пн.-пт.: 09:00-20:00, сб.: 10:00-17:00 (перерыв 13:00-13:50)",
   "metro": "",
   "latitude": 52.615449,
   "longitude": 39.597975,
   "sort": 400,
   "change_at": "05.06.2018 09:02:06",
   "phone": "8 (4742) 27-00-74",
   "id": 12491
 },
 {
   "code": 10000343814,
   "name": "ДО № 10 Малоярославецкий",
   "city": "Малоярославец [49]",
   "activity": "Да",
   "address": "улица Ленина, дом 18",
   "currency": "EUR / RUB / USD",
   "schedule": "пн.-пт.: 9:00-19:00, сб.: 9:30-17:00, обед 13:00-13:30, вс.: выходной",
   "metro": "",
   "latitude": 55.01006,
   "longitude": 36.465258,
   "sort": 206,
   "change_at": "29.05.2018 14:39:00",
   "phone": "8 (48431) 2-08-04",
   "id": 783
 },
 {
   "code": 10000343822,
   "name": "ОО «Тульский»",
   "city": "Тула [50]",
   "activity": "Да",
   "address": "проспект Ленина, дом 17, ТК «Парадиз»",
   "currency": "EUR / RUB / USD",
   "schedule": "пн.-пт.: 10:00-21:00, сб.-вс.: 10:00-21:00, обед 15:00-16:00",
   "metro": "",
   "latitude": 54.191252,
   "longitude": 37.616297,
   "sort": 215,
   "change_at": "29.05.2018 14:39:10",
   "phone": "8 (4872) 70-48-25",
   "id": 784
 },
 {
   "code": 10000343824,
   "name": "ОО «Тульский-2»",
   "city": "Тула [50]",
   "activity": "Да",
   "address": "улица Лейтейзена, дом 6",
   "currency": "EUR / RUB / USD",
   "schedule": "пн.-пт.: 10:15-18:45, технический перерыв: 14:00-15:00, сб., вс.: выходной",
   "metro": "",
   "latitude": 54.195719,
   "longitude": 37.600675,
   "sort": 216,
   "change_at": "29.05.2018 14:39:22",
   "phone": "8 (4872) 70-44-43",
   "id": 785
 },
 {
   "code": 10000343828,
   "name": "ОО «Тульский-4»",
   "city": "Тула [50]",
   "activity": "Да",
   "address": "улица Советская, дом 29",
   "currency": "EUR / RUB / USD",
   "schedule": "пн.-пт.: 9:00-20:00, сб.: 9:00-20:00, обед 14:00-15:00, вс.: 9:00-16:00 без перерыва",
   "metro": "",
   "latitude": 54.193781,
   "longitude": 37.613341,
   "sort": 218,
   "change_at": "16.10.2017 14:05:53",
   "phone": "8 (4872) 25-90-60",
   "id": 787
 },
 {
   "code": 10000820895,
   "name": "ОО «Одинцовский»",
   "city": "Одинцово [9932]",
   "activity": "Да",
   "address": "Можайское шоссе, дом 80А, помещение IX",
   "currency": "EUR / RUB / USD",
   "schedule": "пн.-пт. 09:30-19:30, без перерывов сб., вс: 10:00-18:00, перерыв 14:00-15:00.",
   "metro": "",
   "latitude": 55.683808,
   "longitude": 37.297404,
   "sort": 220,
   "change_at": "06.06.2018 14:47:37",
   "phone": "8 800 100 9889",
   "id": 11975
 },
  {
    "code": "frompsb_99",
    "type": "Банкомат",
    "name": "Банкомат ПАО ПРОМСВЯЗЬБАНК",
    "city": "Зеленоград [10049]",
    "activity": "Да",
    "address": "18-й микрорайон; корпус 1801",
    "schedule": "пн.-вс. 09:00-22:00",
    "latitude": "55.977616",
    "longitude": "37.163118",
    "sort": "500",
    "change_at": "01.06.2018 14:24:32",
    "id": "10050"
  },
  {
    "code": "frompsb_23909",
    "type": "Банкомат",
    "name": "Банкомат ПАО ПРОМСВЯЗЬБАНК",
    "city": "Зеленоград [10049]",
    "activity": "Да",
    "address": "Крюковская площадь; дом 1",
    "schedule": "пн.-вс. 09:00-23:00",
    "latitude": "55.982684",
    "longitude": "37.174854",
    "sort": "500",
    "change_at": "01.06.2018 14:24:32",
    "id": "10052"
  },
  {
    "code": "frompsb_263",
    "type": "Платёжный терминал",
    "name": "Платёжный терминал ПАО ПРОМСВЯЗЬБАНК",
    "city": "Зеленоград [10049]",
    "activity": "Да",
    "address": "проспект Центральный; корпус 445",
    "schedule": "пн.-пт. 09:30-19:30; сб.-вс. выходной",
    "latitude": "55.991971",
    "longitude": "37.212791",
    "sort": "500",
    "change_at": "01.06.2018 14:24:32",
    "id": "10085"
  },
  {
    "code": "frompsb_5447",
    "type": "Банкомат",
    "name": "Банкомат ПАО ПРОМСВЯЗЬБАНК",
    "city": "Зеленоград [10049]",
    "activity": "Да",
    "address": "проспект Центральный; корпус 445",
    "schedule": "круглосуточно",
    "latitude": "55.991971",
    "longitude": "37.212791",
    "sort": "500",
    "change_at": "01.06.2018 14:24:32",
    "id": "10086"
  },
  {
    "code": "frompsb_718",
    "type": "Банкомат",
    "name": "Банкомат ПАО ПРОМСВЯЗЬБАНК",
    "city": "Рыбное [10076]",
    "activity": "Да",
    "address": "улица Почтовая; дом 1",
    "schedule": "пн.-вс. 07:00-23:00",
    "latitude": "54.731278",
    "longitude": "39.504449",
    "sort": "500",
    "change_at": "01.06.2018 14:24:32",
    "id": "10077"
  },
  {
    "code": "frompsb_18425",
    "type": "Банкомат",
    "name": "Банкомат ПАО ПРОМСВЯЗЬБАНК",
    "city": "Рязань [10078]",
    "activity": "Да",
    "address": "улица Гагарина; дом 71",
    "schedule": "пн.-пт. 09:00-18:00; сб.-вс. выходной",
    "latitude": "54.609224",
    "longitude": "39.715543",
    "sort": "500",
    "change_at": "01.06.2018 14:24:32",
    "id": "10079"
  },
  {
    "code": "frompsb_720",
    "type": "Банкомат",
    "name": "Банкомат ПАО ПРОМСВЯЗЬБАНК",
    "city": "Рязань [10078]",
    "activity": "Да",
    "address": "улица Октябрьская; дом 55",
    "schedule": "пн.-вс. 08:00-23:00",
    "latitude": "54.652452",
    "longitude": "39.655874",
    "sort": "500",
    "change_at": "01.06.2018 14:24:32",
    "id": "10091"
  },
  {
    "code": "frompsb_728",
    "type": "Банкомат",
    "name": "Банкомат ПАО ПРОМСВЯЗЬБАНК",
    "city": "Рязань [10078]",
    "activity": "Да",
    "address": "Московское шоссе; дом 5 А",
    "schedule": "пн.-пт. 09:00-19:30; сб.-вс. выходной",
    "latitude": "54.632067",
    "longitude": "39.698098",
    "sort": "500",
    "change_at": "01.06.2018 14:24:32",
    "id": "10097"
  },
  {
    "code": "frompsb_16577",
    "type": "Банкомат",
    "name": "Банкомат ПАО ПРОМСВЯЗЬБАНК",
    "city": "Рязань [10078]",
    "activity": "Да",
    "address": "улица Прижелезнодорожная; дом 52",
    "schedule": "круглосуточно",
    "latitude": "54.696597",
    "longitude": "39.597273",
    "sort": "500",
    "change_at": "01.06.2018 14:24:32",
    "id": "10101"
  },
  {
    "code": "frompsb_723",
    "type": "Банкомат",
    "name": "Банкомат ПАО ПРОМСВЯЗЬБАНК",
    "city": "Рязань [10078]",
    "activity": "Да",
    "address": "Первомайский проспект; дом 70/1",
    "schedule": "пн.-вс. 09:00-00:00",
    "latitude": "54.630491",
    "longitude": "39.710546",
    "sort": "500",
    "change_at": "01.06.2018 14:24:32",
    "id": "10102"
  },
  {
    "code": "frompsb_1247",
    "type": "Банкомат",
    "name": "Банкомат ПАО ПРОМСВЯЗЬБАНК",
    "city": "Рязань [10078]",
    "activity": "Да",
    "address": "Первомайский проспект; дом 25",
    "schedule": "пн.-чт. 08:30-17:30; пт. 08:30-17:00; сб.-вс. выходной",
    "latitude": "54.628936",
    "longitude": "39.725306",
    "sort": "500",
    "change_at": "01.06.2018 14:24:33",
    "id": "10116"
  },
  {
    "code": "frompsb_22091",
    "type": "Банкомат",
    "name": "Банкомат ПАО ПРОМСВЯЗЬБАНК",
    "city": "Рязань [10078]",
    "activity": "Да",
    "address": "улица Станкозаводская; дом 30",
    "schedule": "пн.-вс. 08:00-20:00",
    "latitude": "54.673096",
    "longitude": "39.656835",
    "sort": "500",
    "change_at": "01.06.2018 14:24:33",
    "id": "10120"
  },
  {
    "code": "frompsb_725",
    "type": "Банкомат",
    "name": "Банкомат ПАО ПРОМСВЯЗЬБАНК",
    "city": "Рязань [10078]",
    "activity": "Да",
    "address": "улица Ленина; дом 21",
    "schedule": "круглосуточно",
    "latitude": "54.62387",
    "longitude": "39.751828",
    "sort": "500",
    "change_at": "01.06.2018 14:24:33",
    "id": "10123"
  },
  {
    "code": "frompsb_5420",
    "type": "Платёжный терминал",
    "name": "Платёжный терминал ПАО ПРОМСВЯЗЬБАНК",
    "city": "Рязань [10078]",
    "activity": "Да",
    "address": "улица Ленина; дом 9",
    "schedule": "пн.-пт. 09:00-19:30; сб. 10:00-15:00; вс. выходной",
    "latitude": "54.623146",
    "longitude": "39.753449",
    "sort": "500",
    "change_at": "01.06.2018 14:24:33",
    "id": "10124"
  },
  {
    "code": "frompsb_726",
    "type": "Банкомат",
    "name": "Банкомат ПАО ПРОМСВЯЗЬБАНК",
    "city": "Рязань [10078]",
    "activity": "Да",
    "address": "улица Есенина; дом 13",
    "schedule": "пн.-вс. 07:00-01:00",
    "latitude": "54.627257",
    "longitude": "39.766674",
    "sort": "500",
    "change_at": "01.06.2018 14:24:33",
    "id": "10130"
  },
  {
    "code": "frompsb_5421",
    "type": "Платёжный терминал",
    "name": "Платёжный терминал ПАО ПРОМСВЯЗЬБАНК",
    "city": "Рязань [10078]",
    "activity": "Да",
    "address": "улица Есенина; дом 13",
    "schedule": "пн.-пт. 09:00-19:30; сб.-вс. выходной",
    "latitude": "54.627138",
    "longitude": "39.7669",
    "sort": "500",
    "change_at": "01.06.2018 14:24:33",
    "id": "10131"
  },
  {
    "code": "frompsb_6134",
    "type": "Банкомат",
    "name": "Банкомат ПАО ПРОМСВЯЗЬБАНК",
    "city": "Рязань [10078]",
    "activity": "Да",
    "address": "улица Новоселов; дом 17",
    "schedule": "пн.-вс. 08:00-21:00",
    "latitude": "54.611607",
    "longitude": "39.796704",
    "sort": "500",
    "change_at": "01.06.2018 14:24:33",
    "id": "10136"
  },
  {
    "code": "frompsb_18258",
    "type": "Платёжный терминал",
    "name": "Платёжный терминал ПАО ПРОМСВЯЗЬБАНК",
    "city": "Химки [10087]",
    "activity": "Да",
    "address": "Юбилейный проспект; дом 60; помещение 4",
    "schedule": "пн.-пт. 09:30-20:30; сб. 10:00-16:30; вс. выходной",
    "latitude": "55.889043",
    "longitude": "37.414239",
    "sort": "500",
    "change_at": "01.06.2018 14:24:32",
    "id": "10088"
  },
  {
    "code": "frompsb_17053",
    "type": "Банкомат",
    "name": "Банкомат ПАО ПРОМСВЯЗЬБАНК",
    "city": "Химки [10087]",
    "activity": "Да",
    "address": "Юбилейный проспект.; дом 60",
    "schedule": "круглосуточно",
    "latitude": "55.889045",
    "longitude": "37.414239",
    "sort": "500",
    "change_at": "01.06.2018 14:24:32",
    "id": "10089"
  },
  {
    "code": "frompsb_122",
    "type": "Банкомат",
    "name": "Банкомат ПАО ПРОМСВЯЗЬБАНК",
    "city": "Химки [10087]",
    "activity": "Да",
    "address": "Ленинградское шоссе; владение 5",
    "schedule": "пн.-вс. 10:00-22:00",
    "latitude": "55.888775",
    "longitude": "37.433483",
    "sort": "500",
    "change_at": "01.06.2018 14:24:32",
    "id": "10099"
  },
  {
    "code": "frompsb_8",
    "type": "Банкомат",
    "name": "Банкомат ПАО ПРОМСВЯЗЬБАНК",
    "city": "Химки [10087]",
    "activity": "Да",
    "address": "Ленинградское шоссе; владение 5",
    "schedule": "пн.-вс. 10:00-22:00",
    "latitude": "55.888762",
    "longitude": "37.433526",
    "sort": "500",
    "change_at": "01.06.2018 14:24:32",
    "id": "10100"
  },
  {
    "code": "frompsb_25",
    "type": "Банкомат",
    "name": "Банкомат ПАО ПРОМСВЯЗЬБАНК",
    "city": "Химки [10087]",
    "activity": "Да",
    "address": "Аэропорт Шереметьево",
    "schedule": "круглосуточно",
    "latitude": "55.964019",
    "longitude": "37.417923",
    "sort": "500",
    "change_at": "01.06.2018 14:24:33",
    "id": "10152"
  },
  {
    "code": "frompsb_23796",
    "type": "Банкомат",
    "name": "Банкомат ПАО ПРОМСВЯЗЬБАНК",
    "city": "Котельники [10112]",
    "activity": "Да",
    "address": "Новорязанское шоссе; дом 5",
    "schedule": "пн.-вс. 09:00-22:00",
    "latitude": "55.668312",
    "longitude": "37.865863",
    "sort": "500",
    "change_at": "01.06.2018 14:24:33",
    "id": "10113"
  },
  {
    "code": "frompsb_27641",
    "type": "Банкомат",
    "name": "Банкомат ПАО ПРОМСВЯЗЬБАНК",
    "city": "Котельники [10112]",
    "activity": "Да",
    "address": "Новорязанское шоссе; дом 24",
    "schedule": "круглосуточно",
    "latitude": "55.658016",
    "longitude": "37.885822",
    "sort": "500",
    "change_at": "01.06.2018 14:24:33",
    "id": "10114"
  },
  {
    "code": "frompsb_27642",
    "type": "Банкомат",
    "name": "Банкомат ПАО ПРОМСВЯЗЬБАНК",
    "city": "Котельники [10112]",
    "activity": "Да",
    "address": "Новорязанское шоссе; дом 24",
    "schedule": "круглосуточно",
    "latitude": "55.658323",
    "longitude": "37.886375",
    "sort": "500",
    "change_at": "01.06.2018 14:24:33",
    "id": "10115"
  },
  {
    "code": "frompsb_18428",
    "type": "Банкомат",
    "name": "Банкомат ПАО ПРОМСВЯЗЬБАНК",
    "city": "Люберцы [10132]",
    "activity": "Да",
    "address": "Октябрьский проспект; дом 111/119",
    "schedule": "круглосуточно",
    "latitude": "55.68802",
    "longitude": "37.874122",
    "sort": "500",
    "change_at": "01.06.2018 14:24:33",
    "id": "10133"
  },
  {
    "code": "frompsb_28210",
    "type": "Банкомат",
    "name": "Банкомат ПАО ПРОМСВЯЗЬБАНК",
    "city": "Люберцы [10132]",
    "activity": "Да",
    "address": "Октябрьский проспект; дом 111/119",
    "schedule": "круглосуточно",
    "latitude": "55.687729",
    "longitude": "37.874729",
    "sort": "500",
    "change_at": "01.06.2018 14:24:33",
    "id": "10134"
  },
  {
    "code": "frompsb_19132",
    "type": "Банкомат",
    "name": "Банкомат ПАО ПРОМСВЯЗЬБАНК",
    "city": "Люберцы [10132]",
    "activity": "Да",
    "address": "Октябрьский проспект; дом 111/119",
    "schedule": "круглосуточно",
    "latitude": "55.687918",
    "longitude": "37.874478",
    "sort": "500",
    "change_at": "01.06.2018 14:24:33",
    "id": "10135"
  },
  {
    "code": "frompsb_22092",
    "type": "Банкомат",
    "name": "Банкомат ПАО ПРОМСВЯЗЬБАНК",
    "city": "Рязанская обл. [10140]",
    "activity": "Да",
    "address": "село Дядьково; дом 1",
    "schedule": "пн.-вс. 07:00-00:00",
    "latitude": "54.619941",
    "longitude": "39.801773",
    "sort": "500",
    "change_at": "01.06.2018 14:24:33",
    "id": "10141"
  },
  {
    "code": "frompsb_29",
    "type": "Банкомат",
    "name": "Банкомат ПАО ПРОМСВЯЗЬБАНК",
    "city": "Солнечногорск [10147]",
    "activity": "Да",
    "address": "улица Рабочая; дом 9",
    "schedule": "круглосуточно",
    "latitude": "56.188226",
    "longitude": "36.973344",
    "sort": "500",
    "change_at": "01.06.2018 14:24:33",
    "id": "10148"
  },
  {
    "code": "frompsb_265",
    "type": "Платёжный терминал",
    "name": "Платёжный терминал ПАО ПРОМСВЯЗЬБАНК",
    "city": "Солнечногорск [10147]",
    "activity": "Да",
    "address": "улица Рабочая; дом 9",
    "schedule": "пн.-пт. 09:00-19:30; сб. 10:00-16:30; вс. выходной",
    "latitude": "56.188226",
    "longitude": "36.973344",
    "sort": "500",
    "change_at": "01.06.2018 14:24:33",
    "id": "10149"
  },
  {
    "code": "frompsb_18429",
    "type": "Банкомат",
    "name": "Банкомат ПАО ПРОМСВЯЗЬБАНК",
    "city": "Солнечногорск [10147]",
    "activity": "Да",
    "address": "микрорайон Рекинцо-2",
    "schedule": "пн.-вс. 09:00-22:00",
    "latitude": "56.175412",
    "longitude": "36.998939",
    "sort": "500",
    "change_at": "01.06.2018 14:24:33",
    "id": "10150"
  },
  {
    "code": "frompsb_18464",
    "type": "Банкомат",
    "name": "Банкомат ПАО ПРОМСВЯЗЬБАНК",
    "city": "Солнечногорск [10147]",
    "activity": "Да",
    "address": "улица Красная; дом 157",
    "schedule": "пн.-вс. 09:00-22:00",
    "latitude": "56.196852",
    "longitude": "36.956978",
    "sort": "500",
    "change_at": "01.06.2018 14:24:33",
    "id": "10151"
  },
  {
    "code": "frompsb_26392",
    "type": "Банкомат",
    "name": "Банкомат ПАО ПРОМСВЯЗЬБАНК",
    "city": "п. Малаховка [10153]",
    "activity": "Да",
    "address": "Егорьевское шоссе; дом 4 А",
    "schedule": "пн.-вс. 09:00-22:00",
    "latitude": "55.662838",
    "longitude": "38.000755",
    "sort": "500",
    "change_at": "01.06.2018 14:24:33",
    "id": "10154"
  },
  {
    "code": "frompsb_26771",
    "type": "Банкомат",
    "name": "Банкомат ПАО ПРОМСВЯЗЬБАНК",
    "city": "Воскресенск [10162]",
    "activity": "Да",
    "address": "площадь Ленина; дом 5",
    "schedule": "круглосуточно",
    "latitude": "55.321675",
    "longitude": "38.672938",
    "sort": "500",
    "change_at": "01.06.2018 14:24:33",
    "id": "10163"
  },
  {
    "code": "frompsb_6022",
    "type": "Банкомат",
    "name": "Банкомат ПАО ПРОМСВЯЗЬБАНК",
    "city": "Воскресенск [10162]",
    "activity": "Да",
    "address": "улица Советская; дом 4 А",
    "schedule": "круглосуточно",
    "latitude": "55.319129",
    "longitude": "38.683925",
    "sort": "500",
    "change_at": "01.06.2018 14:24:33",
    "id": "10166"
  },
  {
    "code": "frompsb_27",
    "type": "Банкомат",
    "name": "Банкомат ПАО ПРОМСВЯЗЬБАНК",
    "city": "Воскресенск [10162]",
    "activity": "Да",
    "address": "улица Советская; дом 4 А",
    "schedule": "пн.-пт. 09:00-19:00; сб. 10:00-16:30; вс. выходной",
    "latitude": "55.319153",
    "longitude": "38.683925",
    "sort": "500",
    "change_at": "01.06.2018 14:24:33",
    "id": "10167"
  },
  {
    "code": "frompsb_23908",
    "type": "Банкомат",
    "name": "Банкомат ПАО ПРОМСВЯЗЬБАНК",
    "city": "Калининск [10164]",
    "activity": "Да",
    "address": "улица Советская; дом 36/1 А",
    "schedule": "пн.-вс. 08:00-22:00",
    "latitude": "51.495878",
    "longitude": "44.481009",
    "sort": "500",
    "change_at": "01.06.2018 14:24:33",
    "id": "10165"
  },
  {
    "code": "frompsb_23627",
    "type": "Банкомат",
    "name": "Банкомат ПАО ПРОМСВЯЗЬБАНК",
    "city": "Лобня [10172]",
    "activity": "Да",
    "address": "Краснополянский проезд; дом 2",
    "schedule": "пн.-вс. 10:00-22:00",
    "latitude": "56.008352",
    "longitude": "37.439808",
    "sort": "500",
    "change_at": "01.06.2018 14:24:33",
    "id": "10173"
  },
  {
    "code": "frompsb_13976",
    "type": "Банкомат",
    "name": "Банкомат ПАО ПРОМСВЯЗЬБАНК",
    "city": "Железнодорожный [10176]",
    "activity": "Да",
    "address": "улица Автозаводская; дом 36",
    "schedule": "пн.-вс. 09:00-20:00",
    "latitude": "55.726307",
    "longitude": "38.010103",
    "sort": "500",
    "change_at": "01.06.2018 14:24:34",
    "id": "10177"
  },
  {
    "code": "frompsb_25796",
    "type": "Банкомат",
    "name": "Банкомат ПАО ПРОМСВЯЗЬБАНК",
    "city": "Железнодорожный [10176]",
    "activity": "Да",
    "address": "улица Граничная; дом 22; корпус 2",
    "schedule": "пн.-вс. 09:00-22:00",
    "latitude": "55.746153",
    "longitude": "37.983429",
    "sort": "500",
    "change_at": "01.06.2018 14:24:34",
    "id": "10178"
  },
  {
    "code": "frompsb_25018",
    "type": "Банкомат",
    "name": "Банкомат ПАО ПРОМСВЯЗЬБАНК",
    "city": "Железнодорожный [10176]",
    "activity": "Да",
    "address": "улица Пролетарская; дом 7",
    "schedule": "круглосуточно",
    "latitude": "55.74463",
    "longitude": "38.008934",
    "sort": "500",
    "change_at": "01.06.2018 14:24:34",
    "id": "10179"
  },
  {
    "code": "frompsb_17809",
    "type": "Платёжный терминал",
    "name": "Платёжный терминал ПАО ПРОМСВЯЗЬБАНК",
    "city": "Железнодорожный [10176]",
    "activity": "Да",
    "address": "улица Пролетарская; дом 7",
    "schedule": "пн.-пт. 09:30-20:00; сб. 10:00-16:30; вс. выходной",
    "latitude": "55.745486",
    "longitude": "38.008912",
    "sort": "500",
    "change_at": "01.06.2018 14:24:34",
    "id": "10180"
  },
  {
    "code": "frompsb_22734",
    "type": "Банкомат",
    "name": "Банкомат ПАО ПРОМСВЯЗЬБАНК",
    "city": "Железнодорожный [10176]",
    "activity": "Да",
    "address": "улица Пролетарская; дом 2/2",
    "schedule": "пн.-вс. 09:00-22:00",
    "latitude": "55.749561",
    "longitude": "38.007704",
    "sort": "500",
    "change_at": "01.06.2018 14:24:34",
    "id": "10181"
  },
  {
    "code": "frompsb_22752",
    "type": "Банкомат",
    "name": "Банкомат ПАО ПРОМСВЯЗЬБАНК",
    "city": "Мытищи [10183]",
    "activity": "Да",
    "address": "улица Коммунистическая; дом 1",
    "schedule": "пн.-вс. 10:00-22:00",
    "latitude": "55.891692",
    "longitude": "37.74864",
    "sort": "500",
    "change_at": "01.06.2018 14:24:34",
    "id": "10184"
  },
  {
    "code": "frompsb_23722",
    "type": "Банкомат",
    "name": "Банкомат ПАО ПРОМСВЯЗЬБАНК",
    "city": "Королев [10202]",
    "activity": "Да",
    "address": "улица Коммунальная; дом 1",
    "schedule": "пн.-вс. 08:00-23:00",
    "latitude": "55.915583",
    "longitude": "37.845744",
    "sort": "500",
    "change_at": "01.06.2018 14:24:34",
    "id": "10203"
  },
  {
    "code": "frompsb_9464",
    "type": "Банкомат",
    "name": "Банкомат ПАО ПРОМСВЯЗЬБАНК",
    "city": "Королев [10202]",
    "activity": "Да",
    "address": "улица Коммунальная; дом 1",
    "schedule": "пн.-вс. 08:00-23:00",
    "latitude": "55.91626",
    "longitude": "37.84613",
    "sort": "500",
    "change_at": "01.06.2018 14:24:34",
    "id": "10204"
  },
  {
    "code": "frompsb_161",
    "type": "Банкомат",
    "name": "Банкомат ПАО ПРОМСВЯЗЬБАНК",
    "city": "Королев [10202]",
    "activity": "Да",
    "address": "проспект Королева; дом 20",
    "schedule": "пн.-пт. 09:00-20:30; сб. 10:00-16:30; вс. выходной",
    "latitude": "55.921245",
    "longitude": "37.848558",
    "sort": "500",
    "change_at": "01.06.2018 14:24:34",
    "id": "10207"
  },
  {
    "code": "frompsb_6102",
    "type": "Платёжный терминал",
    "name": "Платёжный терминал ПАО ПРОМСВЯЗЬБАНК",
    "city": "Королев [10202]",
    "activity": "Да",
    "address": "проспект Королева; дом 20",
    "schedule": "круглосуточно",
    "latitude": "55.921357",
    "longitude": "37.849046",
    "sort": "500",
    "change_at": "01.06.2018 14:24:34",
    "id": "10208"
  },
  {
    "code": "frompsb_24050",
    "type": "Банкомат",
    "name": "Банкомат ПАО ПРОМСВЯЗЬБАНК",
    "city": "Королев [10202]",
    "activity": "Да",
    "address": "проспект Королева; дом 20",
    "schedule": "круглосуточно",
    "latitude": "55.921369",
    "longitude": "37.8491",
    "sort": "500",
    "change_at": "01.06.2018 14:24:34",
    "id": "10209"
  },
  {
    "code": "frompsb_22728",
    "type": "Банкомат",
    "name": "Банкомат ПАО ПРОМСВЯЗЬБАНК",
    "city": "Королев [10202]",
    "activity": "Да",
    "address": "проспект Космонавтов; дом 12 А",
    "schedule": "пн.-вс. 09:00-22:00",
    "latitude": "55.91736",
    "longitude": "37.867177",
    "sort": "500",
    "change_at": "01.06.2018 14:24:34",
    "id": "10210"
  },
  {
    "code": "frompsb_26883",
    "type": "Платёжный терминал",
    "name": "Платёжный терминал ПАО ПРОМСВЯЗЬБАНК",
    "city": "Электроугли [10205]",
    "activity": "Да",
    "address": "улица Школьная; дом 53",
    "schedule": "пн.-чт. 08:00-17:00; пт. 08:00-16:00; сб.-вс. выходной",
    "latitude": "55.718826",
    "longitude": "38.228439",
    "sort": "500",
    "change_at": "01.06.2018 14:24:34",
    "id": "10206"
  },
  {
    "code": "frompsb_262",
    "type": "Платёжный терминал",
    "name": "Платёжный терминал ПАО ПРОМСВЯЗЬБАНК",
    "city": "Щелково [10211]",
    "activity": "Да",
    "address": "Пролетарский проспект; дом 4; корпус 3",
    "schedule": "пн.-пт. 09:00-20:30; сб. 10:00-16:30; вс. выходной",
    "latitude": "55.917008",
    "longitude": "37.997152",
    "sort": "500",
    "change_at": "01.06.2018 14:24:34",
    "id": "10212"
  },
  {
    "code": "frompsb_17475",
    "type": "Банкомат",
    "name": "Банкомат ПАО ПРОМСВЯЗЬБАНК",
    "city": "Щелково [10211]",
    "activity": "Да",
    "address": "Пролетарский проспект; дом 4; корпус 3",
    "schedule": "пн.-пт. 09:00-20:30; сб. 10:00-16:30; вс. выходной",
    "latitude": "55.917008",
    "longitude": "37.997152",
    "sort": "500",
    "change_at": "01.06.2018 14:24:34",
    "id": "10213"
  },
  {
    "code": "frompsb_9459",
    "type": "Банкомат",
    "name": "Банкомат ПАО ПРОМСВЯЗЬБАНК",
    "city": "Щелково [10211]",
    "activity": "Да",
    "address": "Пролетарский проспект; дом 18",
    "schedule": "пн.-вс. 08:00-23:00",
    "latitude": "55.929507",
    "longitude": "38.004246",
    "sort": "500",
    "change_at": "01.06.2018 14:24:34",
    "id": "10216"
  },
  {
    "code": "frompsb_16571",
    "type": "Банкомат",
    "name": "Банкомат ПАО ПРОМСВЯЗЬБАНК",
    "city": "Щелково [10211]",
    "activity": "Да",
    "address": "Пролетарский проспект; дом 18",
    "schedule": "пн.-вс. 08:00-23:00",
    "latitude": "55.929507",
    "longitude": "38.004246",
    "sort": "500",
    "change_at": "01.06.2018 14:24:34",
    "id": "10217"
  },
  {
    "code": "frompsb_143",
    "type": "Банкомат",
    "name": "Банкомат ПАО ПРОМСВЯЗЬБАНК",
    "city": "Пушкино [10214]",
    "activity": "Да",
    "address": "улица Чехова; дом 12",
    "schedule": "пн.-вс. 10:00-22:00",
    "latitude": "56.008699",
    "longitude": "37.851912",
    "sort": "500",
    "change_at": "01.06.2018 14:24:34",
    "id": "10215"
  },
  {
    "code": "frompsb_20607",
    "type": "Банкомат",
    "name": "Банкомат ПАО ПРОМСВЯЗЬБАНК",
    "city": "Пушкино [10214]",
    "activity": "Да",
    "address": "Красноармейское шоссе; владение 105",
    "schedule": "пн.-вс. 08:00-23:00",
    "latitude": "56.018168",
    "longitude": "37.885739",
    "sort": "500",
    "change_at": "01.06.2018 14:24:34",
    "id": "10218"
  },
  {
    "code": "frompsb_20608",
    "type": "Банкомат",
    "name": "Банкомат ПАО ПРОМСВЯЗЬБАНК",
    "city": "Пушкино [10214]",
    "activity": "Да",
    "address": "Красноармейское шоссе; владение 105",
    "schedule": "пн.-вс. 08:00-23:00",
    "latitude": "56.019082",
    "longitude": "37.88619",
    "sort": "500",
    "change_at": "01.06.2018 14:24:34",
    "id": "10219"
  },
  {
    "code": "frompsb_17026",
    "type": "Банкомат",
    "name": "Банкомат ПАО ПРОМСВЯЗЬБАНК",
    "city": "п. Случайный [10220]",
    "activity": "Да",
    "address": "Массив 1; строение 2",
    "schedule": "пн.-вс. 09:00-23:00",
    "latitude": "55.758844",
    "longitude": "38.434056",
    "sort": "500",
    "change_at": "01.06.2018 14:24:34",
    "id": "10221"
  },
  {
    "code": "frompsb_17027",
    "type": "Банкомат",
    "name": "Банкомат ПАО ПРОМСВЯЗЬБАНК",
    "city": "п. Случайный [10220]",
    "activity": "Да",
    "address": "Массив 1; строение 2",
    "schedule": "пн.-вс. 09:00-23:00",
    "latitude": "55.758696",
    "longitude": "38.435209",
    "sort": "500",
    "change_at": "01.06.2018 14:24:34",
    "id": "10222"
  },
  {
    "code": "frompsb_25106",
    "type": "Банкомат",
    "name": "Банкомат ПАО ПРОМСВЯЗЬБАНК",
    "city": "Электросталь [10223]",
    "activity": "Да",
    "address": "проспект Ленина; дом 32/16",
    "schedule": "круглосуточно",
    "latitude": "55.790928",
    "longitude": "38.440447",
    "sort": "500",
    "change_at": "01.06.2018 14:24:34",
    "id": "10224"
  },
  {
    "code": "frompsb_6358",
    "type": "Платёжный терминал",
    "name": "Платёжный терминал ПАО ПРОМСВЯЗЬБАНК",
    "city": "Электросталь [10223]",
    "activity": "Да",
    "address": "проспект Ленина; дом 32/16; помещение 05",
    "schedule": "пн.-пт. 09:30-20:00; сб. 10:00-16:30; вс. выходной",
    "latitude": "55.790764",
    "longitude": "38.440902",
    "sort": "500",
    "change_at": "01.06.2018 14:24:34",
    "id": "10225"
  },
  {
    "code": "frompsb_167",
    "type": "Банкомат",
    "name": "Банкомат ПАО ПРОМСВЯЗЬБАНК",
    "city": "Электросталь [10223]",
    "activity": "Да",
    "address": "проспект Ленина; дом 32/16",
    "schedule": "круглосуточно",
    "latitude": "55.790674",
    "longitude": "38.441151",
    "sort": "500",
    "change_at": "01.06.2018 14:24:34",
    "id": "10226"
  },
  {
    "code": "frompsb_28215",
    "type": "Банкомат",
    "name": "Банкомат ПАО ПРОМСВЯЗЬБАНК",
    "city": "Дмитров [10227]",
    "activity": "Да",
    "address": "улица Профессиональная; дом 7",
    "schedule": "пн.-вс. 09:00-21:00",
    "latitude": "56.352376",
    "longitude": "37.520404",
    "sort": "500",
    "change_at": "01.06.2018 14:24:34",
    "id": "10228"
  },
  {
    "code": "frompsb_1194",
    "type": "Банкомат",
    "name": "Банкомат ПАО ПРОМСВЯЗЬБАНК",
    "city": "Дмитров [10227]",
    "activity": "Да",
    "address": "улица Профессиональная; дом 7",
    "schedule": "пн.-вс. 09:00-21:00",
    "latitude": "56.352499",
    "longitude": "37.520439",
    "sort": "500",
    "change_at": "01.06.2018 14:24:34",
    "id": "10229"
  },
  {
    "code": "frompsb_172",
    "type": "Банкомат",
    "name": "Банкомат ПАО ПРОМСВЯЗЬБАНК",
    "city": "Павловский Посад [10230]",
    "activity": "Да",
    "address": "улица Интернациональная; дом 34 А",
    "schedule": "пн.-вс. 08:00-20:00",
    "latitude": "55.776923",
    "longitude": "38.695212",
    "sort": "500",
    "change_at": "01.06.2018 14:24:34",
    "id": "10231"
  },
  {
    "code": "frompsb_24046",
    "type": "Банкомат",
    "name": "Банкомат ПАО ПРОМСВЯЗЬБАНК",
    "city": "Ногинский р-он [10232]",
    "activity": "Да",
    "address": "поселок Коверши",
    "schedule": "круглосуточно",
    "latitude": "55.900587",
    "longitude": "38.512773",
    "sort": "500",
    "change_at": "01.06.2018 14:24:34",
    "id": "10233"
  },
  {
    "code": "frompsb_23632",
    "type": "Банкомат",
    "name": "Банкомат ПАО ПРОМСВЯЗЬБАНК",
    "city": "Сергиев Посад [10234]",
    "activity": "Да",
    "address": "улица Кооперативная; дом 3",
    "schedule": "пн.-вс. 09:00-22:00",
    "latitude": "56.301416",
    "longitude": "38.136008",
    "sort": "500",
    "change_at": "01.06.2018 14:24:34",
    "id": "10235"
  },
  {
    "code": "frompsb_267",
    "type": "Платёжный терминал",
    "name": "Платёжный терминал ПАО ПРОМСВЯЗЬБАНК",
    "city": "Сергиев Посад [10234]",
    "activity": "Да",
    "address": "проспект Красной Армии; дом 133",
    "schedule": "пн.-пт. 09:00-19:00; сб. 10:00-16:30; вс. выходной",
    "latitude": "56.312089",
    "longitude": "38.133749",
    "sort": "500",
    "change_at": "01.06.2018 14:24:34",
    "id": "10236"
  },
  {
    "code": "frompsb_5448",
    "type": "Банкомат",
    "name": "Банкомат ПАО ПРОМСВЯЗЬБАНК",
    "city": "Сергиев Посад [10234]",
    "activity": "Да",
    "address": "проспект Красной Армии; дом 133",
    "schedule": "круглосуточно",
    "latitude": "56.312089",
    "longitude": "38.133749",
    "sort": "500",
    "change_at": "01.06.2018 14:24:34",
    "id": "10237"
  },
  {
    "code": "frompsb_29959",
    "type": "Банкомат",
    "name": "Банкомат ПАО ПРОМСВЯЗЬБАНК",
    "city": "Сергиев Посад [10234]",
    "activity": "Да",
    "address": "улица Птицеградская; дом 2 Б",
    "schedule": "пн.-вс. 09:00-22:00",
    "latitude": "56.298316",
    "longitude": "38.174554",
    "sort": "500",
    "change_at": "01.06.2018 14:24:34",
    "id": "11588"
  },
  {
    "code": "frompsb_25895",
    "type": "Банкомат",
    "name": "Банкомат ПАО ПРОМСВЯЗЬБАНК",
    "city": "п. Металлострой [10257]",
    "activity": "Да",
    "address": "дор. Металлострой; дом 12",
    "schedule": "круглосуточно",
    "latitude": "59.802591",
    "longitude": "30.564928",
    "sort": "500",
    "change_at": "01.06.2018 14:24:35",
    "id": "10258"
  },
  {
    "code": "frompsb_5545",
    "type": "Банкомат",
    "name": "Банкомат ПАО ПРОМСВЯЗЬБАНК",
    "city": "Энгельс [10261]",
    "activity": "Да",
    "address": "улица Гагарина; дом 78",
    "schedule": "пн.-вс. 08:00-20:00",
    "latitude": "51.407711",
    "longitude": "46.039503",
    "sort": "500",
    "change_at": "01.06.2018 14:24:35",
    "id": "10262"
  },
  {
    "code": "frompsb_25104",
    "type": "Банкомат",
    "name": "Банкомат ПАО ПРОМСВЯЗЬБАНК",
    "city": "Энгельс [10261]",
    "activity": "Да",
    "address": "улица Заводская; дом 1",
    "schedule": "пн.-вс. 07:00-21:00",
    "latitude": "51.486065",
    "longitude": "46.098274",
    "sort": "500",
    "change_at": "01.06.2018 14:24:36",
    "id": "10314"
  },
  {
    "code": "frompsb_18272",
    "type": "Банкомат",
    "name": "Банкомат ПАО ПРОМСВЯЗЬБАНК",
    "city": "Энгельс [10261]",
    "activity": "Да",
    "address": "улица Тельмана; дом 137",
    "schedule": "пн.-вс. 10:00-21:00",
    "latitude": "51.484115",
    "longitude": "46.129056",
    "sort": "500",
    "change_at": "01.06.2018 14:24:36",
    "id": "10322"
  },
  {
    "code": "frompsb_686",
    "type": "Банкомат",
    "name": "Банкомат ПАО ПРОМСВЯЗЬБАНК",
    "city": "Энгельс [10261]",
    "activity": "Да",
    "address": "улица Маяковского; дом 48",
    "schedule": "круглосуточно",
    "latitude": "51.491117",
    "longitude": "46.122737",
    "sort": "500",
    "change_at": "01.06.2018 14:24:36",
    "id": "10323"
  },
  {
    "code": "frompsb_5546",
    "type": "Платёжный терминал",
    "name": "Платёжный терминал ПАО ПРОМСВЯЗЬБАНК",
    "city": "Энгельс [10261]",
    "activity": "Да",
    "address": "улица Маяковского; дом 48",
    "schedule": "круглосуточно",
    "latitude": "51.491203",
    "longitude": "46.122678",
    "sort": "500",
    "change_at": "01.06.2018 14:24:36",
    "id": "10324"
  },
  {
    "code": "frompsb_25105",
    "type": "Банкомат",
    "name": "Банкомат ПАО ПРОМСВЯЗЬБАНК",
    "city": "р.п. Приволжский [10264]",
    "activity": "Да",
    "address": "5-й квартал; дом 14",
    "schedule": "пн.-вс. 08:00-18:00",
    "latitude": "51.407757",
    "longitude": "46.049139",
    "sort": "500",
    "change_at": "01.06.2018 14:24:35",
    "id": "10265"
  },
  {
    "code": "frompsb_18338",
    "type": "Банкомат",
    "name": "Банкомат ПАО ПРОМСВЯЗЬБАНК",
    "city": "Саратов [10268]",
    "activity": "Да",
    "address": "площадь Орджоникидзе; дом 1",
    "schedule": "пн.-вс. 10:00-21:00",
    "latitude": "51.501196",
    "longitude": "45.944048",
    "sort": "500",
    "change_at": "01.06.2018 14:24:35",
    "id": "10269"
  },
  {
    "code": "frompsb_16817",
    "type": "Банкомат",
    "name": "Банкомат ПАО ПРОМСВЯЗЬБАНК",
    "city": "Саратов [10268]",
    "activity": "Да",
    "address": "улица Астраханская; дом 88",
    "schedule": "круглосуточно",
    "latitude": "51.529191",
    "longitude": "46.00257",
    "sort": "500",
    "change_at": "01.06.2018 14:24:35",
    "id": "10295"
  },
  {
    "code": "frompsb_28102",
    "type": "Банкомат",
    "name": "Банкомат ПАО ПРОМСВЯЗЬБАНК",
    "city": "Саратов [10268]",
    "activity": "Да",
    "address": "улица Василия Люкшина; дом 5",
    "schedule": "пн.-вс. 10:00-22:00",
    "latitude": "51.531507",
    "longitude": "46.01783",
    "sort": "500",
    "change_at": "01.06.2018 14:24:35",
    "id": "10303"
  },
  {
    "code": "frompsb_672",
    "type": "Банкомат",
    "name": "Банкомат ПАО ПРОМСВЯЗЬБАНК",
    "city": "Саратов [10268]",
    "activity": "Да",
    "address": "улица Советская; дом 20/28; литера А",
    "schedule": "круглосуточно",
    "latitude": "51.528191",
    "longitude": "46.026381",
    "sort": "500",
    "change_at": "01.06.2018 14:24:35",
    "id": "10305"
  },
  {
    "code": "frompsb_21617",
    "type": "Банкомат",
    "name": "Банкомат ПАО ПРОМСВЯЗЬБАНК",
    "city": "Саратов [10268]",
    "activity": "Да",
    "address": "улица 3-я Дачная улица",
    "schedule": "пн.-вс. 10:00-22:00",
    "latitude": "51.576372",
    "longitude": "45.972815",
    "sort": "500",
    "change_at": "01.06.2018 14:24:35",
    "id": "10307"
  },
  {
    "code": "frompsb_13258",
    "type": "Банкомат",
    "name": "Банкомат ПАО ПРОМСВЯЗЬБАНК",
    "city": "Саратов [10268]",
    "activity": "Да",
    "address": "проспект 50 лет Октября; дом 19",
    "schedule": "круглосуточно",
    "latitude": "51.562665",
    "longitude": "45.99187",
    "sort": "500",
    "change_at": "01.06.2018 14:24:36",
    "id": "10311"
  },
  {
    "code": "frompsb_23729",
    "type": "Банкомат",
    "name": "Банкомат ПАО ПРОМСВЯЗЬБАНК",
    "city": "Саратов [10268]",
    "activity": "Да",
    "address": "улица Танкистов; дом 1",
    "schedule": "круглосуточно",
    "latitude": "51.547104",
    "longitude": "46.014877",
    "sort": "500",
    "change_at": "01.06.2018 14:24:36",
    "id": "10312"
  },
  {
    "code": "frompsb_5543",
    "type": "Банкомат",
    "name": "Банкомат ПАО ПРОМСВЯЗЬБАНК",
    "city": "Саратов [10268]",
    "activity": "Да",
    "address": "поселок Новосоколовогорский",
    "schedule": "пн.-вс. 08:00-22:00",
    "latitude": "51.569405",
    "longitude": "46.065778",
    "sort": "500",
    "change_at": "01.06.2018 14:24:36",
    "id": "10330"
  },
  {
    "code": "frompsb_20837",
    "type": "Платёжный терминал",
    "name": "Платёжный терминал ПАО ПРОМСВЯЗЬБАНК",
    "city": "Кириши [10335]",
    "activity": "Да",
    "address": "проспект Ленина; дом 26",
    "schedule": "пн.-чт. 09:30-18:30; пт. 09:30-18:00; сб.-вс. выходной",
    "latitude": "59.448725",
    "longitude": "32.016446",
    "sort": "500",
    "change_at": "01.06.2018 14:24:36",
    "id": "10336"
  },
  {
    "code": "frompsb_205",
    "type": "Банкомат",
    "name": "Банкомат ПАО ПРОМСВЯЗЬБАНК",
    "city": "Кириши [10335]",
    "activity": "Да",
    "address": "проспект Ленина; дом 26",
    "schedule": "круглосуточно",
    "latitude": "59.448737",
    "longitude": "32.016602",
    "sort": "500",
    "change_at": "01.06.2018 14:24:36",
    "id": "10337"
  },
  {
    "code": "frompsb_16574",
    "type": "Банкомат",
    "name": "Банкомат ПАО ПРОМСВЯЗЬБАНК",
    "city": "Кириши [10335]",
    "activity": "Да",
    "address": "улица Романтиков; дом 4",
    "schedule": "пн.-вс. 08:00-22:00",
    "latitude": "59.450092",
    "longitude": "32.026529",
    "sort": "500",
    "change_at": "01.06.2018 14:24:36",
    "id": "10338"
  },
  {
    "code": "frompsb_18990",
    "type": "Банкомат",
    "name": "Банкомат ПАО ПРОМСВЯЗЬБАНК",
    "city": "Кириши [10335]",
    "activity": "Да",
    "address": "проспект Героев; дом 33; помещение 6-Н",
    "schedule": "пн.-вс. 10:00-21:00",
    "latitude": "59.444631",
    "longitude": "32.042385",
    "sort": "500",
    "change_at": "01.06.2018 14:24:36",
    "id": "10339"
  },
  {
    "code": "frompsb_27871",
    "type": "Платёжный терминал",
    "name": "Платёжный терминал ПАО ПРОМСВЯЗЬБАНК",
    "city": "Касимов [10340]",
    "activity": "Да",
    "address": "улица Советская; дом 42",
    "schedule": "пн.-пт. 09:30-18:30; сб.-вс. выходной",
    "latitude": "54.941609",
    "longitude": "41.400061",
    "sort": "500",
    "change_at": "01.06.2018 14:24:36",
    "id": "10341"
  },
  {
    "code": "frompsb_27868",
    "type": "Банкомат",
    "name": "Банкомат ПАО ПРОМСВЯЗЬБАНК",
    "city": "Касимов [10340]",
    "activity": "Да",
    "address": "улица Советская; дом 42",
    "schedule": "круглосуточно",
    "latitude": "54.941593",
    "longitude": "41.40015",
    "sort": "500",
    "change_at": "01.06.2018 14:24:36",
    "id": "10342"
  },
  {
    "code": "frompsb_26011",
    "type": "Банкомат",
    "name": "Банкомат ПАО ПРОМСВЯЗЬБАНК",
    "city": "с. Генеральское [10351]",
    "activity": "Да",
    "address": "улица Центральная; дом 13",
    "schedule": "пн.-вс. 08:00-19:00",
    "latitude": "51.591153",
    "longitude": "46.340778",
    "sort": "500",
    "change_at": "25.05.2018 10:15:41",
    "id": "10352"
  },
  {
    "code": "frompsb_1123",
    "type": "Банкомат",
    "name": "Банкомат ПАО ПРОМСВЯЗЬБАНК",
    "city": "Гусь-Хрустальный [10353]",
    "activity": "Да",
    "address": "улица 50 лет Советской власти; дом 33",
    "schedule": "пн.-вс. 08:00-23:00",
    "latitude": "55.615816",
    "longitude": "40.64499",
    "sort": "500",
    "change_at": "01.06.2018 14:24:36",
    "id": "10354"
  },
  {
    "code": "frompsb_26804",
    "type": "Банкомат",
    "name": "Банкомат ПАО ПРОМСВЯЗЬБАНК",
    "city": "Гусь-Хрустальный [10353]",
    "activity": "Да",
    "address": "улица Писарева; дом 17",
    "schedule": "пн.-вс. 07:00-21:00",
    "latitude": "55.617021",
    "longitude": "40.654585",
    "sort": "500",
    "change_at": "01.06.2018 14:24:36",
    "id": "10355"
  },
  {
    "code": "frompsb_6047",
    "type": "Банкомат",
    "name": "Банкомат ПАО ПРОМСВЯЗЬБАНК",
    "city": "Гусь-Хрустальный [10353]",
    "activity": "Да",
    "address": "улица Транспортная; дом 30",
    "schedule": "пн.-вс. 07:00-19:00",
    "latitude": "55.638917",
    "longitude": "40.617822",
    "sort": "500",
    "change_at": "01.06.2018 14:24:36",
    "id": "10356"
  },
  {
    "code": "frompsb_20856",
    "type": "Банкомат",
    "name": "Банкомат ПАО ПРОМСВЯЗЬБАНК",
    "city": "Гусь-Хрустальный [10353]",
    "activity": "Да",
    "address": "улица Транспортная; дом 14 А",
    "schedule": "пн.-вс. 08:00-22:00",
    "latitude": "55.630961",
    "longitude": "40.635169",
    "sort": "500",
    "change_at": "01.06.2018 14:24:36",
    "id": "10357"
  },
  {
    "code": "frompsb_20394",
    "type": "Банкомат",
    "name": "Банкомат ПАО ПРОМСВЯЗЬБАНК",
    "city": "Гусь-Хрустальный [10353]",
    "activity": "Да",
    "address": "улица Интернациональная; дом 22",
    "schedule": "круглосуточно",
    "latitude": "55.615354",
    "longitude": "40.672971",
    "sort": "500",
    "change_at": "01.06.2018 14:24:36",
    "id": "10358"
  },
  {
    "code": "frompsb_5417",
    "type": "Платёжный терминал",
    "name": "Платёжный терминал ПАО ПРОМСВЯЗЬБАНК",
    "city": "Гусь-Хрустальный [10353]",
    "activity": "Да",
    "address": "улица Интернациональная; дом 22",
    "schedule": "пн.-пт. 09:00-19:00; сб. 10:00-14:00; вс. выходной",
    "latitude": "55.615585",
    "longitude": "40.673113",
    "sort": "500",
    "change_at": "01.06.2018 14:24:36",
    "id": "10359"
  },
  {
    "code": "frompsb_6794",
    "type": "Банкомат",
    "name": "Банкомат ПАО ПРОМСВЯЗЬБАНК",
    "city": "Гусь-Хрустальный [10353]",
    "activity": "Да",
    "address": "улица Каховского; дом 4",
    "schedule": "пн.-вс. 07:00-19:00",
    "latitude": "55.618973",
    "longitude": "40.689236",
    "sort": "500",
    "change_at": "01.06.2018 14:24:36",
    "id": "10360"
  },
  {
    "code": "frompsb_1209",
    "type": "Банкомат",
    "name": "Банкомат ПАО ПРОМСВЯЗЬБАНК",
    "city": "Владимир [10361]",
    "activity": "Да",
    "address": "село Ворша; Владимирская область",
    "schedule": "круглосуточно",
    "latitude": "56.034265",
    "longitude": "40.046955",
    "sort": "500",
    "change_at": "01.06.2018 14:24:36",
    "id": "10362"
  },
  {
    "code": "frompsb_21766",
    "type": "Банкомат",
    "name": "Банкомат ПАО ПРОМСВЯЗЬБАНК",
    "city": "Владимир [10361]",
    "activity": "Да",
    "address": "Московское шоссе; дом 2",
    "schedule": "пн.-вс. 09:00-22:00",
    "latitude": "56.114808",
    "longitude": "40.332534",
    "sort": "500",
    "change_at": "01.06.2018 14:24:36",
    "id": "10370"
  },
  {
    "code": "frompsb_6364",
    "type": "Банкомат",
    "name": "Банкомат ПАО ПРОМСВЯЗЬБАНК",
    "city": "Владимир [10361]",
    "activity": "Да",
    "address": "улица Верхняя Дуброва; дом 21",
    "schedule": "пн.-вс. 08:00-23:00",
    "latitude": "56.110171",
    "longitude": "40.346715",
    "sort": "500",
    "change_at": "01.06.2018 14:24:36",
    "id": "10371"
  },
  {
    "code": "frompsb_1110",
    "type": "Банкомат",
    "name": "Банкомат ПАО ПРОМСВЯЗЬБАНК",
    "city": "Владимир [10361]",
    "activity": "Да",
    "address": "проспект Ленина; дом 46",
    "schedule": "пн.-вс. 10:00-02:00",
    "latitude": "56.118306",
    "longitude": "40.352782",
    "sort": "500",
    "change_at": "01.06.2018 14:24:36",
    "id": "10372"
  },
  {
    "code": "frompsb_1105",
    "type": "Банкомат",
    "name": "Банкомат ПАО ПРОМСВЯЗЬБАНК",
    "city": "Владимир [10361]",
    "activity": "Да",
    "address": "Строителей проспект; дом 26",
    "schedule": "круглосуточно",
    "latitude": "56.139167",
    "longitude": "40.363158",
    "sort": "500",
    "change_at": "01.06.2018 14:24:36",
    "id": "10373"
  },
  {
    "code": "frompsb_1109",
    "type": "Банкомат",
    "name": "Банкомат ПАО ПРОМСВЯЗЬБАНК",
    "city": "Владимир [10361]",
    "activity": "Да",
    "address": "Дворянская улица; дом 10",
    "schedule": "пн.-вс. 09:00-21:00",
    "latitude": "56.12603",
    "longitude": "40.393587",
    "sort": "500",
    "change_at": "01.06.2018 14:24:37",
    "id": "10374"
  },
  {
    "code": "frompsb_12593",
    "type": "Платёжный терминал",
    "name": "Платёжный терминал ПАО ПРОМСВЯЗЬБАНК",
    "city": "Владимир [10361]",
    "activity": "Да",
    "address": "улица Большая Московская; дом 19 А",
    "schedule": "пн.-вс. 10:00-21:00",
    "latitude": "56.128525",
    "longitude": "40.402963",
    "sort": "500",
    "change_at": "01.06.2018 14:24:37",
    "id": "10375"
  },
  {
    "code": "frompsb_1100",
    "type": "Банкомат",
    "name": "Банкомат ПАО ПРОМСВЯЗЬБАНК",
    "city": "Владимир [10361]",
    "activity": "Да",
    "address": "Большая Московская улица; дом 19 А",
    "schedule": "пн.-вс. 10:00-21:00",
    "latitude": "56.128744",
    "longitude": "40.402826",
    "sort": "500",
    "change_at": "01.06.2018 14:24:37",
    "id": "10376"
  },
  {
    "code": "frompsb_1099",
    "type": "Банкомат",
    "name": "Банкомат ПАО ПРОМСВЯЗЬБАНК",
    "city": "Владимир [10361]",
    "activity": "Да",
    "address": "Октябрьский проспект; дом 25",
    "schedule": "пн.-пт. 09:00-19:00; сб.-вс. выходной",
    "latitude": "56.139007",
    "longitude": "40.389133",
    "sort": "500",
    "change_at": "01.06.2018 14:24:37",
    "id": "10377"
  },
  {
    "code": "frompsb_1107",
    "type": "Банкомат",
    "name": "Банкомат ПАО ПРОМСВЯЗЬБАНК",
    "city": "Владимир [10361]",
    "activity": "Да",
    "address": "Тракторная улица; дом 47",
    "schedule": "пн.-вс. 10:00-21:00",
    "latitude": "56.149165",
    "longitude": "40.387236",
    "sort": "500",
    "change_at": "01.06.2018 14:24:37",
    "id": "10378"
  },
  {
    "code": "frompsb_9399",
    "type": "Банкомат",
    "name": "Банкомат ПАО ПРОМСВЯЗЬБАНК",
    "city": "Владимир [10361]",
    "activity": "Да",
    "address": "улица Безыменского; дом 8 А",
    "schedule": "пн.-вс. 08:00-23:00",
    "latitude": "56.167254",
    "longitude": "40.446198",
    "sort": "500",
    "change_at": "01.06.2018 14:24:37",
    "id": "10381"
  },
  {
    "code": "frompsb_1104",
    "type": "Банкомат",
    "name": "Банкомат ПАО ПРОМСВЯЗЬБАНК",
    "city": "Владимир [10361]",
    "activity": "Да",
    "address": "Суздальский проспект; дом 5",
    "schedule": "пн.-вс. 08:00-00:00",
    "latitude": "56.162595",
    "longitude": "40.469833",
    "sort": "500",
    "change_at": "01.06.2018 14:24:37",
    "id": "10384"
  },
  {
    "code": "frompsb_22729",
    "type": "Банкомат",
    "name": "Банкомат ПАО ПРОМСВЯЗЬБАНК",
    "city": "Владимир [10361]",
    "activity": "Да",
    "address": "Суздальский проспект; дом 28",
    "schedule": "круглосуточно",
    "latitude": "56.17649",
    "longitude": "40.459648",
    "sort": "500",
    "change_at": "01.06.2018 14:24:37",
    "id": "10390"
  },
  {
    "code": "frompsb_5415",
    "type": "Платёжный терминал",
    "name": "Платёжный терминал ПАО ПРОМСВЯЗЬБАНК",
    "city": "Владимир [10361]",
    "activity": "Да",
    "address": "Суздальский проспект; дом 28",
    "schedule": "пн.-вс. 09:00-22:00",
    "latitude": "56.176835",
    "longitude": "40.45938",
    "sort": "500",
    "change_at": "01.06.2018 14:24:37",
    "id": "10391"
  },
  {
    "code": "frompsb_9424",
    "type": "Банкомат",
    "name": "Банкомат ПАО ПРОМСВЯЗЬБАНК",
    "city": "Владимир [10361]",
    "activity": "Да",
    "address": "Суздальский проспект; дом 28",
    "schedule": "пн.-вс. 07:00-01:00",
    "latitude": "56.176479",
    "longitude": "40.460571",
    "sort": "500",
    "change_at": "01.06.2018 14:24:37",
    "id": "10392"
  },
  {
    "code": "frompsb_24048",
    "type": "Платёжный терминал",
    "name": "Платёжный терминал ПАО ПРОМСВЯЗЬБАНК",
    "city": "Переславль-Залесский [10363]",
    "activity": "Да",
    "address": "улица Советская; дом 37",
    "schedule": "пн.-пт. 09:00-18:00; сб.-вс. выходной",
    "latitude": "56.732292",
    "longitude": "38.849502",
    "sort": "500",
    "change_at": "01.06.2018 14:24:36",
    "id": "10364"
  },
  {
    "code": "frompsb_25096",
    "type": "Платёжный терминал",
    "name": "Платёжный терминал ПАО ПРОМСВЯЗЬБАНК",
    "city": "Переславль-Залесский [10363]",
    "activity": "Да",
    "address": "переулок Кривоколенный; дом 5",
    "schedule": "пн.-вс. 09:00-22:00",
    "latitude": "56.739661",
    "longitude": "38.859189",
    "sort": "500",
    "change_at": "01.06.2018 14:24:36",
    "id": "10365"
  },
  {
    "code": "frompsb_21606",
    "type": "Банкомат",
    "name": "Банкомат ПАО ПРОМСВЯЗЬБАНК",
    "city": "Переславль-Залесский [10363]",
    "activity": "Да",
    "address": "улица Свободы; дом 98",
    "schedule": "пн.-пт. 09:00-18:00; сб.-вс. выходной",
    "latitude": "56.738311",
    "longitude": "38.897099",
    "sort": "500",
    "change_at": "18.05.2018 10:12:27",
    "id": "10366"
  },
  {
    "code": "frompsb_22587",
    "type": "Банкомат",
    "name": "Банкомат ПАО ПРОМСВЯЗЬБАНК",
    "city": "Переславль-Залесский [10363]",
    "activity": "Да",
    "address": "улица Менделеева; дом 21",
    "schedule": "пн.-вс. 09:00-23:00",
    "latitude": "56.755834",
    "longitude": "38.876849",
    "sort": "500",
    "change_at": "01.06.2018 14:24:36",
    "id": "10367"
  },
  {
    "code": "frompsb_6333",
    "type": "Банкомат",
    "name": "Банкомат ПАО ПРОМСВЯЗЬБАНК",
    "city": "п. Колокша [10368]",
    "activity": "Да",
    "address": "улица Советская; дом 12",
    "schedule": "круглосуточно",
    "latitude": "56.078895",
    "longitude": "40.145213",
    "sort": "500",
    "change_at": "01.06.2018 14:24:36",
    "id": "10369"
  },
  {
    "code": "frompsb_22172",
    "type": "Банкомат",
    "name": "Банкомат ПАО ПРОМСВЯЗЬБАНК",
    "city": "Пенза [10379]",
    "activity": "Да",
    "address": "проспект Строителей; дом 1 В",
    "schedule": "пн.-вс. 10:00-22:00",
    "latitude": "53.22032",
    "longitude": "44.951299",
    "sort": "500",
    "change_at": "01.06.2018 14:24:37",
    "id": "10380"
  },
  {
    "code": "frompsb_6330",
    "type": "Банкомат",
    "name": "Банкомат ПАО ПРОМСВЯЗЬБАНК",
    "city": "Пенза [10379]",
    "activity": "Да",
    "address": "улица Баумана; дом 30",
    "schedule": "круглосуточно",
    "latitude": "53.170575",
    "longitude": "45.021232",
    "sort": "500",
    "change_at": "01.06.2018 14:24:37",
    "id": "10382"
  },
  {
    "code": "frompsb_13241",
    "type": "Банкомат",
    "name": "Банкомат ПАО ПРОМСВЯЗЬБАНК",
    "city": "Пенза [10379]",
    "activity": "Да",
    "address": "улица Карпинского; дом 39",
    "schedule": "круглосуточно",
    "latitude": "53.209868",
    "longitude": "44.977725",
    "sort": "500",
    "change_at": "01.06.2018 14:24:37",
    "id": "10383"
  },
  {
    "code": "frompsb_18046",
    "type": "Банкомат",
    "name": "Банкомат ПАО ПРОМСВЯЗЬБАНК",
    "city": "Пенза [10379]",
    "activity": "Да",
    "address": "улица Суворова; дом 145 А",
    "schedule": "пн.-пт. 09:00-19:00; сб. 10:00-16:30; вс. выходной",
    "latitude": "53.20172",
    "longitude": "44.997583",
    "sort": "500",
    "change_at": "01.06.2018 14:24:37",
    "id": "10385"
  },
  {
    "code": "frompsb_18047",
    "type": "Банкомат",
    "name": "Банкомат ПАО ПРОМСВЯЗЬБАНК",
    "city": "Пенза [10379]",
    "activity": "Да",
    "address": "улица Суворова; дом 145 А",
    "schedule": "пн.-пт. 09:00-19:00; сб. 10:00-16:30; вс. выходной",
    "latitude": "53.201839",
    "longitude": "44.997477",
    "sort": "500",
    "change_at": "01.06.2018 14:24:37",
    "id": "10386"
  },
  {
    "code": "frompsb_6097",
    "type": "Платёжный терминал",
    "name": "Платёжный терминал ПАО ПРОМСВЯЗЬБАНК",
    "city": "Пенза [10379]",
    "activity": "Да",
    "address": "улица Суворова ; дом 145 А",
    "schedule": "пн.-пт. 09:00-19:00; сб. 10:00-16:30; вс. выходной",
    "latitude": "53.201788",
    "longitude": "44.997841",
    "sort": "500",
    "change_at": "01.06.2018 14:24:37",
    "id": "10387"
  },
  {
    "code": "frompsb_5647",
    "type": "Банкомат",
    "name": "Банкомат ПАО ПРОМСВЯЗЬБАНК",
    "city": "Пенза [10379]",
    "activity": "Да",
    "address": "улица Московская; дом 29",
    "schedule": "пн.-пт. 09:00-19:00; сб. 10:00-16:30; вс. выходной",
    "latitude": "53.188831",
    "longitude": "45.015502",
    "sort": "500",
    "change_at": "01.06.2018 14:24:37",
    "id": "10388"
  },
  {
    "code": "frompsb_839",
    "type": "Банкомат",
    "name": "Банкомат ПАО ПРОМСВЯЗЬБАНК",
    "city": "Пенза [10379]",
    "activity": "Да",
    "address": "улица Суворова; дом 144 А",
    "schedule": "пн.-вс. 08:00-00:00",
    "latitude": "53.202604",
    "longitude": "44.998183",
    "sort": "500",
    "change_at": "01.06.2018 14:24:37",
    "id": "10389"
  },
  {
    "code": "frompsb_21752",
    "type": "Банкомат",
    "name": "Банкомат ПАО ПРОМСВЯЗЬБАНК",
    "city": "Пенза [10379]",
    "activity": "Да",
    "address": "улица Кирова; дом 73",
    "schedule": "пн.-вс. 09:00-21:00",
    "latitude": "53.198359",
    "longitude": "45.021344",
    "sort": "500",
    "change_at": "01.06.2018 14:24:37",
    "id": "10393"
  },
  {
    "code": "frompsb_25126",
    "type": "Банкомат",
    "name": "Банкомат ПАО ПРОМСВЯЗЬБАНК",
    "city": "Пенза [10379]",
    "activity": "Да",
    "address": "улица Аустрина; дом 63",
    "schedule": "пн.-пт. 08:00-17:00; сб.-вс. выходной",
    "latitude": "53.234604",
    "longitude": "45.013576",
    "sort": "500",
    "change_at": "01.06.2018 14:24:37",
    "id": "10394"
  },
  {
    "code": "frompsb_25098",
    "type": "Платёжный терминал",
    "name": "Платёжный терминал ПАО ПРОМСВЯЗЬБАНК",
    "city": "п. Петровское [10395]",
    "activity": "Да",
    "address": "Советская площадь; дом 12/25",
    "schedule": "пн.-вс. 09:00-22:00",
    "latitude": "57.013123",
    "longitude": "39.265126",
    "sort": "500",
    "change_at": "01.06.2018 14:24:37",
    "id": "10396"
  },
  {
    "code": "frompsb_26008",
    "type": "Платёжный терминал",
    "name": "Платёжный терминал ПАО ПРОМСВЯЗЬБАНК",
    "city": "Углич [10397]",
    "activity": "Да",
    "address": "улица Ярославская; дом 50",
    "schedule": "пн.-пт. 08:00-19:00; сб.-вс. выходной",
    "latitude": "57.53165",
    "longitude": "38.331395",
    "sort": "500",
    "change_at": "01.06.2018 14:24:37",
    "id": "10398"
  },
  {
    "code": "frompsb_26031",
    "type": "Платёжный терминал",
    "name": "Платёжный терминал ПАО ПРОМСВЯЗЬБАНК",
    "city": "Углич [10397]",
    "activity": "Да",
    "address": "Ярославское шоссе; дом 2",
    "schedule": "пн.-вс. 09:00-22:00",
    "latitude": "57.533724",
    "longitude": "38.33499",
    "sort": "500",
    "change_at": "01.06.2018 14:24:37",
    "id": "10399"
  },
  {
    "code": "frompsb_1126",
    "type": "Банкомат",
    "name": "Банкомат ПАО ПРОМСВЯЗЬБАНК",
    "city": "Муром [10400]",
    "activity": "Да",
    "address": "улица Куликова; дом 4",
    "schedule": "пн.-вс. 07:00-00:00",
    "latitude": "55.573863",
    "longitude": "42.036631",
    "sort": "500",
    "change_at": "01.06.2018 14:24:37",
    "id": "10401"
  },
  {
    "code": "frompsb_5418",
    "type": "Платёжный терминал",
    "name": "Платёжный терминал ПАО ПРОМСВЯЗЬБАНК",
    "city": "Муром [10400]",
    "activity": "Да",
    "address": "улица Московская; дом 47",
    "schedule": "пн.-пт. 09:00-19:00; сб.-вс. выходной",
    "latitude": "55.576241",
    "longitude": "42.038209",
    "sort": "500",
    "change_at": "01.06.2018 14:24:37",
    "id": "10402"
  },
  {
    "code": "frompsb_6126",
    "type": "Банкомат",
    "name": "Банкомат ПАО ПРОМСВЯЗЬБАНК",
    "city": "Муром [10400]",
    "activity": "Да",
    "address": "улица Советская; дом 10",
    "schedule": "пн.-вс. 08:00-23:00",
    "latitude": "55.577597",
    "longitude": "42.052403",
    "sort": "500",
    "change_at": "01.06.2018 14:24:37",
    "id": "10403"
  },
  {
    "code": "frompsb_28261",
    "type": "Банкомат",
    "name": "Банкомат ПАО ПРОМСВЯЗЬБАНК",
    "city": "Муром [10400]",
    "activity": "Да",
    "address": "улица Московская; дом 47",
    "schedule": "круглосуточно",
    "latitude": "55.576227",
    "longitude": "42.038384",
    "sort": "500",
    "change_at": "01.06.2018 14:24:37",
    "id": "11592"
  },
  {
    "code": "frompsb_1119",
    "type": "Банкомат",
    "name": "Банкомат ПАО ПРОМСВЯЗЬБАНК",
    "city": "Камешково [10405]",
    "activity": "Да",
    "address": "улица 3-го Интернационала; дом 29",
    "schedule": "пн.-вс. 09:00-19:00",
    "latitude": "56.348842",
    "longitude": "40.994138",
    "sort": "500",
    "change_at": "01.06.2018 14:24:37",
    "id": "10406"
  },
  {
    "code": "frompsb_17813",
    "type": "Банкомат",
    "name": "Банкомат ПАО ПРОМСВЯЗЬБАНК",
    "city": "Саров [10407]",
    "activity": "Да",
    "address": "улица Герцена; дом 7",
    "schedule": "пн.-пт. 09:00-19:00; сб. 10:00-16:00; вс. выходной",
    "latitude": "54.944616",
    "longitude": "43.319288",
    "sort": "500",
    "change_at": "01.06.2018 14:24:37",
    "id": "10408"
  },
  {
    "code": "frompsb_6087",
    "type": "Платёжный терминал",
    "name": "Платёжный терминал ПАО ПРОМСВЯЗЬБАНК",
    "city": "Саров [10407]",
    "activity": "Да",
    "address": "Герцена улица; дом 7",
    "schedule": "пн.-пт. 09:00-19:00; сб. 10:00-16:00; вс. выходной",
    "latitude": "54.944627",
    "longitude": "43.31935",
    "sort": "500",
    "change_at": "01.06.2018 14:24:37",
    "id": "10409"
  },
  {
    "code": "frompsb_18993",
    "type": "Банкомат",
    "name": "Банкомат ПАО ПРОМСВЯЗЬБАНК",
    "city": "Саров [10407]",
    "activity": "Да",
    "address": "улица Силкина; дом 31",
    "schedule": "пн.-вс. 08:00-19:00",
    "latitude": "54.923745",
    "longitude": "43.352848",
    "sort": "500",
    "change_at": "01.06.2018 14:24:37",
    "id": "10410"
  },
  {
    "code": "frompsb_2909",
    "type": "Банкомат",
    "name": "Банкомат ПАО ПРОМСВЯЗЬБАНК",
    "city": "Саров [10407]",
    "activity": "Да",
    "address": "улица Московская; дом 5",
    "schedule": "круглосуточно",
    "latitude": "54.941424",
    "longitude": "43.328292",
    "sort": "500",
    "change_at": "01.06.2018 14:24:37",
    "id": "10411"
  },
  {
    "code": "frompsb_25100",
    "type": "Платёжный терминал",
    "name": "Платёжный терминал ПАО ПРОМСВЯЗЬБАНК",
    "city": "п. Семибратово [10412]",
    "activity": "Да",
    "address": "улица Ломоносова; дом 22",
    "schedule": "пн.-вс. 09:00-22:00",
    "latitude": "57.296652",
    "longitude": "39.54099",
    "sort": "500",
    "change_at": "01.06.2018 14:24:37",
    "id": "10413"
  },
  {
    "code": "frompsb_6121",
    "type": "Банкомат",
    "name": "Банкомат ПАО ПРОМСВЯЗЬБАНК",
    "city": "Ковров [10414]",
    "activity": "Да",
    "address": "Комсомольская улица; дом 116",
    "schedule": "пн.-вс. 09:00-22:00",
    "latitude": "56.330562",
    "longitude": "41.283408",
    "sort": "500",
    "change_at": "01.06.2018 14:24:37",
    "id": "10415"
  },
  {
    "code": "frompsb_21758",
    "type": "Банкомат",
    "name": "Банкомат ПАО ПРОМСВЯЗЬБАНК",
    "city": "Ковров [10414]",
    "activity": "Да",
    "address": "улица Ватутина; дом 59",
    "schedule": "пн.-вс. 09:00-22:00",
    "latitude": "56.337569",
    "longitude": "41.317304",
    "sort": "500",
    "change_at": "01.06.2018 14:24:37",
    "id": "10416"
  },
  {
    "code": "frompsb_22408",
    "type": "Банкомат",
    "name": "Банкомат ПАО ПРОМСВЯЗЬБАНК",
    "city": "Ковров [10414]",
    "activity": "Да",
    "address": "улица Тургенева; дом 9",
    "schedule": "круглосуточно",
    "latitude": "56.351075",
    "longitude": "41.316858",
    "sort": "500",
    "change_at": "01.06.2018 14:24:37",
    "id": "10417"
  },
  {
    "code": "frompsb_25108",
    "type": "Банкомат",
    "name": "Банкомат ПАО ПРОМСВЯЗЬБАНК",
    "city": "Ковров [10414]",
    "activity": "Да",
    "address": "улица Зои Космодемьянской; дом 13",
    "schedule": "пн.-вс. 08:00-22:00",
    "latitude": "56.347763",
    "longitude": "41.334972",
    "sort": "500",
    "change_at": "01.06.2018 14:24:37",
    "id": "10418"
  },
  {
    "code": "frompsb_6122",
    "type": "Банкомат",
    "name": "Банкомат ПАО ПРОМСВЯЗЬБАНК",
    "city": "Ковров [10414]",
    "activity": "Да",
    "address": "Чернышевского улица; дом 17",
    "schedule": "круглосуточно",
    "latitude": "56.359382",
    "longitude": "41.319987",
    "sort": "500",
    "change_at": "01.06.2018 14:24:37",
    "id": "10419"
  },
  {
    "code": "frompsb_14381",
    "type": "Банкомат",
    "name": "Банкомат ПАО ПРОМСВЯЗЬБАНК",
    "city": "Ковров [10414]",
    "activity": "Да",
    "address": "улица Труда; дом 1",
    "schedule": "круглосуточно",
    "latitude": "56.367869",
    "longitude": "41.311252",
    "sort": "500",
    "change_at": "01.06.2018 14:24:37",
    "id": "10420"
  },
  {
    "code": "frompsb_5416",
    "type": "Платёжный терминал",
    "name": "Платёжный терминал ПАО ПРОМСВЯЗЬБАНК",
    "city": "Ковров [10414]",
    "activity": "Да",
    "address": "улица Труда; дом 1",
    "schedule": "пн.-пт. 09:00-19:00; сб.-вс. выходной",
    "latitude": "56.367876",
    "longitude": "41.311268",
    "sort": "500",
    "change_at": "01.06.2018 14:24:37",
    "id": "10421"
  },
  {
    "code": "frompsb_1114",
    "type": "Банкомат",
    "name": "Банкомат ПАО ПРОМСВЯЗЬБАНК",
    "city": "Ковров [10414]",
    "activity": "Да",
    "address": "Муромская улица; дом 25/2",
    "schedule": "пн.-вс. 08:00-21:00",
    "latitude": "56.357827",
    "longitude": "41.347846",
    "sort": "500",
    "change_at": "01.06.2018 14:24:37",
    "id": "10422"
  },
  {
    "code": "frompsb_26198",
    "type": "Платёжный терминал",
    "name": "Платёжный терминал ПАО ПРОМСВЯЗЬБАНК",
    "city": "с. Большое Село [10423]",
    "activity": "Да",
    "address": "улица Мясникова; дом 49 А",
    "schedule": "пн.-вс. 09:00-22:00",
    "latitude": "57.721936",
    "longitude": "38.939993",
    "sort": "500",
    "change_at": "01.06.2018 14:24:37",
    "id": "10424"
  },
  {
    "code": "frompsb_18055",
    "type": "Банкомат",
    "name": "Банкомат ПАО ПРОМСВЯЗЬБАНК",
    "city": "п. Красные Ткачи [10425]",
    "activity": "Да",
    "address": "улица Б. Октябрьская; дом 19",
    "schedule": "пн.-вс. 09:00-20:00",
    "latitude": "57.495215",
    "longitude": "39.750721",
    "sort": "500",
    "change_at": "01.06.2018 14:24:37",
    "id": "10426"
  },
  {
    "code": "frompsb_270",
    "type": "Банкомат",
    "name": "Банкомат ПАО ПРОМСВЯЗЬБАНК",
    "city": "п. Нагорный [10468]",
    "activity": "Да",
    "address": "улица Дорожная; дом 6 А",
    "schedule": "пн.-вс. 08:00-23:00",
    "latitude": "57.571343",
    "longitude": "39.842761",
    "sort": "500",
    "change_at": "01.06.2018 14:24:38",
    "id": "10469"
  },
  {
    "code": "frompsb_22411",
    "type": "Банкомат",
    "name": "Банкомат ПАО ПРОМСВЯЗЬБАНК",
    "city": "Ярославский р-н [10582]",
    "activity": "Да",
    "address": "поселок Туношна",
    "schedule": "пн.-вс. 08:00-20:00",
    "latitude": "57.544856",
    "longitude": "40.12588",
    "sort": "500",
    "change_at": "01.06.2018 14:24:40",
    "id": "10583"
  },
  {
    "code": "frompsb_9496",
    "type": "Банкомат",
    "name": "Банкомат ПАО ПРОМСВЯЗЬБАНК",
    "city": "Ярославский р-н [10582]",
    "activity": "Да",
    "address": "поселок Красный Бор; дом 1",
    "schedule": "круглосуточно",
    "latitude": "57.639774",
    "longitude": "39.966202",
    "sort": "500",
    "change_at": "01.06.2018 14:24:40",
    "id": "10590"
  },
  {
    "code": "frompsb_27884",
    "type": "Платёжный терминал",
    "name": "Платёжный терминал ПАО ПРОМСВЯЗЬБАНК",
    "city": "Ярославский р-н [10582]",
    "activity": "Да",
    "address": "поселок Красный Бор; строение 1",
    "schedule": "круглосуточно",
    "latitude": "57.639962",
    "longitude": "39.965856",
    "sort": "500",
    "change_at": "01.06.2018 14:24:40",
    "id": "10591"
  },
  {
    "code": "frompsb_311",
    "type": "Банкомат",
    "name": "Банкомат ПАО ПРОМСВЯЗЬБАНК",
    "city": "Ярославский р-н [10582]",
    "activity": "Да",
    "address": "поселок Красный Бор; строение 1",
    "schedule": "круглосуточно",
    "latitude": "57.640031",
    "longitude": "39.966383",
    "sort": "500",
    "change_at": "01.06.2018 14:24:40",
    "id": "10592"
  },
  {
    "code": "frompsb_24059",
    "type": "Платёжный терминал",
    "name": "Платёжный терминал ПАО ПРОМСВЯЗЬБАНК",
    "city": "п. Константиновский [10584]",
    "activity": "Да",
    "address": "улица Речная; дом 5",
    "schedule": "пн.-вс. 08:00-22:00",
    "latitude": "57.828547",
    "longitude": "39.589724",
    "sort": "500",
    "change_at": "01.06.2018 14:24:40",
    "id": "10585"
  },
  {
    "code": "frompsb_22117",
    "type": "Банкомат",
    "name": "Банкомат ПАО ПРОМСВЯЗЬБАНК",
    "city": "п. Константиновский [10584]",
    "activity": "Да",
    "address": "улица Ленина; дом 12 А",
    "schedule": "пн.-вс. 09:00-20:00",
    "latitude": "57.828263",
    "longitude": "39.593952",
    "sort": "500",
    "change_at": "01.06.2018 14:24:40",
    "id": "10586"
  },
  {
    "code": "frompsb_9417",
    "type": "Банкомат",
    "name": "Банкомат ПАО ПРОМСВЯЗЬБАНК",
    "city": "п. Кузнечиха [10603]",
    "activity": "Да",
    "address": "улица Центральная; дом 40",
    "schedule": "пн.-пт. 08:00-17:00; сб.-вс. выходной",
    "latitude": "57.70717",
    "longitude": "39.896801",
    "sort": "500",
    "change_at": "01.06.2018 14:24:40",
    "id": "10604"
  },
  {
    "code": "frompsb_22738",
    "type": "Платёжный терминал",
    "name": "Платёжный терминал ПАО ПРОМСВЯЗЬБАНК",
    "city": "Арзамас [10605]",
    "activity": "Да",
    "address": "улица Калинина; дом 46",
    "schedule": "пн.-вс. 09:00-20:00",
    "latitude": "55.394448",
    "longitude": "43.83953",
    "sort": "500",
    "change_at": "01.06.2018 14:24:40",
    "id": "10606"
  },
  {
    "code": "frompsb_22731",
    "type": "Банкомат",
    "name": "Банкомат ПАО ПРОМСВЯЗЬБАНК",
    "city": "Арзамас [10605]",
    "activity": "Да",
    "address": "улица Калинина; дом 46",
    "schedule": "пн.-вс. 09:00-20:00",
    "latitude": "55.394549",
    "longitude": "43.83975",
    "sort": "500",
    "change_at": "01.06.2018 14:24:40",
    "id": "10607"
  },
  {
    "code": "frompsb_22739",
    "type": "Платёжный терминал",
    "name": "Платёжный терминал ПАО ПРОМСВЯЗЬБАНК",
    "city": "Арзамас [10605]",
    "activity": "Да",
    "address": "улица Калинина; дом 46",
    "schedule": "пн.-вс. 09:00-20:00",
    "latitude": "55.394457",
    "longitude": "43.840031",
    "sort": "500",
    "change_at": "01.06.2018 14:24:40",
    "id": "10608"
  },
  {
    "code": "frompsb_26976",
    "type": "Банкомат",
    "name": "Банкомат ПАО ПРОМСВЯЗЬБАНК",
    "city": "Сортавала [10609]",
    "activity": "Да",
    "address": "улица Карельская; дом 11 А",
    "schedule": "круглосуточно",
    "latitude": "61.702309",
    "longitude": "30.68897",
    "sort": "500",
    "change_at": "01.06.2018 14:24:40",
    "id": "10610"
  },
  {
    "code": "frompsb_26977",
    "type": "Платёжный терминал",
    "name": "Платёжный терминал ПАО ПРОМСВЯЗЬБАНК",
    "city": "Сортавала [10609]",
    "activity": "Да",
    "address": "улица Карельская; дом 11 А",
    "schedule": "круглосуточно",
    "latitude": "61.702309",
    "longitude": "30.68897",
    "sort": "500",
    "change_at": "01.06.2018 14:24:40",
    "id": "10611"
  },
  {
    "code": "frompsb_22224",
    "type": "Банкомат",
    "name": "Банкомат ПАО ПРОМСВЯЗЬБАНК",
    "city": "Череповец [10612]",
    "activity": "Да",
    "address": "улица Ленинградская; дом 1",
    "schedule": "пн.-вс. 09:00-21:00",
    "latitude": "59.099614",
    "longitude": "37.913471",
    "sort": "500",
    "change_at": "01.06.2018 14:24:40",
    "id": "10613"
  },
  {
    "code": "frompsb_1088",
    "type": "Банкомат",
    "name": "Банкомат ПАО ПРОМСВЯЗЬБАНК",
    "city": "Череповец [10612]",
    "activity": "Да",
    "address": "улица Максима Горького; дом 32",
    "schedule": "пн.-сб. 10:00-20:00; вс. 10:00-19:00",
    "latitude": "59.132895",
    "longitude": "37.924185",
    "sort": "500",
    "change_at": "25.05.2018 10:15:43",
    "id": "10614"
  },
  {
    "code": "frompsb_12592",
    "type": "Платёжный терминал",
    "name": "Платёжный терминал ПАО ПРОМСВЯЗЬБАНК",
    "city": "Череповец [10612]",
    "activity": "Да",
    "address": "проспект Советский; дом 99 А",
    "schedule": "круглосуточно",
    "latitude": "59.129931",
    "longitude": "37.931387",
    "sort": "500",
    "change_at": "01.06.2018 14:24:41",
    "id": "10615"
  },
  {
    "code": "frompsb_12594",
    "type": "Платёжный терминал",
    "name": "Платёжный терминал ПАО ПРОМСВЯЗЬБАНК",
    "city": "Череповец [10612]",
    "activity": "Да",
    "address": "проспект Советский; дом 99 А",
    "schedule": "круглосуточно",
    "latitude": "59.129931",
    "longitude": "37.931387",
    "sort": "500",
    "change_at": "01.06.2018 14:24:41",
    "id": "10616"
  },
  {
    "code": "frompsb_6903",
    "type": "Банкомат",
    "name": "Банкомат ПАО ПРОМСВЯЗЬБАНК",
    "city": "Череповец [10612]",
    "activity": "Да",
    "address": "проспект Советский; дом 99 А",
    "schedule": "пн.-пт. 09:00-18:00; сб.-вс. выходной",
    "latitude": "59.130043",
    "longitude": "37.93128",
    "sort": "500",
    "change_at": "01.06.2018 14:24:41",
    "id": "10617"
  },
  {
    "code": "frompsb_1089",
    "type": "Банкомат",
    "name": "Банкомат ПАО ПРОМСВЯЗЬБАНК",
    "city": "Череповец [10612]",
    "activity": "Да",
    "address": "проспект Победы; дом 148 Б",
    "schedule": "пн.-вс. 08:00-23:00",
    "latitude": "59.121706",
    "longitude": "37.987781",
    "sort": "500",
    "change_at": "25.05.2018 10:15:43",
    "id": "10618"
  },
  {
    "code": "frompsb_22618",
    "type": "Банкомат",
    "name": "Банкомат ПАО ПРОМСВЯЗЬБАНК",
    "city": "Череповец [10612]",
    "activity": "Да",
    "address": "улица Максима Горького; дом 32",
    "schedule": "пн.-вс. 09:00-21:00",
    "latitude": "59.132895",
    "longitude": "37.924185",
    "sort": "500",
    "change_at": "01.06.2018 14:24:41",
    "id": "12416"
  },
  {
    "code": "frompsb_45232",
    "type": "Банкомат",
    "name": "Банкомат ПАО ПРОМСВЯЗЬБАНК",
    "city": "Череповец [10612]",
    "activity": "Да",
    "address": "проспект Победы; дом 148 Б",
    "schedule": "пн.-вс. 10:00-19:00",
    "latitude": "59.121706",
    "longitude": "37.987781",
    "sort": "500",
    "change_at": "01.06.2018 14:24:41",
    "id": "12417"
  },
  {
    "code": "frompsb_6088",
    "type": "Банкомат",
    "name": "Банкомат ПАО ПРОМСВЯЗЬБАНК",
    "city": "с. Дальнее Константиново [10619]",
    "activity": "Да",
    "address": "Нижегородская область; ж/д ст. Суроватиха",
    "schedule": "круглосуточно",
    "latitude": "55.807309",
    "longitude": "44.091641",
    "sort": "500",
    "change_at": "01.06.2018 14:24:41",
    "id": "10620"
  },
  {
    "code": "frompsb_6027",
    "type": "Платёжный терминал",
    "name": "Платёжный терминал ПАО ПРОМСВЯЗЬБАНК",
    "city": "Дзержинск [10621]",
    "activity": "Да",
    "address": "улица Гайдара; дом 59",
    "schedule": "пн.-пт. 10:00-19:00; сб.-вс. выходной",
    "latitude": "56.234763",
    "longitude": "43.436451",
    "sort": "500",
    "change_at": "01.06.2018 14:24:41",
    "id": "10622"
  },
  {
    "code": "frompsb_817",
    "type": "Банкомат",
    "name": "Банкомат ПАО ПРОМСВЯЗЬБАНК",
    "city": "Дзержинск [10621]",
    "activity": "Да",
    "address": "улица Гайдара; дом 59",
    "schedule": "круглосуточно",
    "latitude": "56.234919",
    "longitude": "43.436451",
    "sort": "500",
    "change_at": "01.06.2018 14:24:41",
    "id": "10623"
  },
  {
    "code": "frompsb_26201",
    "type": "Банкомат",
    "name": "Банкомат ПАО ПРОМСВЯЗЬБАНК",
    "city": "Кострома [10624]",
    "activity": "Да",
    "address": "улица Магистральная; дом 20",
    "schedule": "пн.-вс. 10:00-22:00",
    "latitude": "57.741831",
    "longitude": "40.917705",
    "sort": "500",
    "change_at": "01.06.2018 14:24:41",
    "id": "10625"
  },
  {
    "code": "frompsb_22263",
    "type": "Банкомат",
    "name": "Банкомат ПАО ПРОМСВЯЗЬБАНК",
    "city": "Кострома [10624]",
    "activity": "Да",
    "address": "улица Лесная; дом 37",
    "schedule": "пн.-чт. 08:00-17:00; пт. 08:00-15:45; сб.-вс. выходной",
    "latitude": "57.755309",
    "longitude": "40.944823",
    "sort": "500",
    "change_at": "01.06.2018 14:24:41",
    "id": "10626"
  },
  {
    "code": "frompsb_5016",
    "type": "Банкомат",
    "name": "Банкомат ПАО ПРОМСВЯЗЬБАНК",
    "city": "Кострома [10624]",
    "activity": "Да",
    "address": "улица Советская; дом 19",
    "schedule": "пн.-пт. 09:00-20:30; сб. 10:00-16:30; вс. выходной",
    "latitude": "57.765555",
    "longitude": "40.932754",
    "sort": "500",
    "change_at": "01.06.2018 14:24:41",
    "id": "10627"
  },
  {
    "code": "frompsb_23812",
    "type": "Банкомат",
    "name": "Банкомат ПАО ПРОМСВЯЗЬБАНК",
    "city": "Кострома [10624]",
    "activity": "Да",
    "address": "улица Ленина; дом 95",
    "schedule": "пн.-вс. 10:00-22:00",
    "latitude": "57.781982",
    "longitude": "40.93743",
    "sort": "500",
    "change_at": "01.06.2018 14:24:41",
    "id": "10628"
  },
  {
    "code": "frompsb_13601",
    "type": "Банкомат",
    "name": "Банкомат ПАО ПРОМСВЯЗЬБАНК",
    "city": "п. Дружбы; Нижегородская область [10629]",
    "activity": "Да",
    "address": "Промзона № 1",
    "schedule": "пн.-вс. 08:00-01:00",
    "latitude": "56.16394",
    "longitude": "43.919705",
    "sort": "500",
    "change_at": "01.06.2018 14:24:41",
    "id": "10630"
  },
  {
    "code": "frompsb_820",
    "type": "Банкомат",
    "name": "Банкомат ПАО ПРОМСВЯЗЬБАНК",
    "city": "Нижегородская обл. [10638]",
    "activity": "Да",
    "address": "курортный поселок Зеленый город",
    "schedule": "круглосуточно",
    "latitude": "56.174149",
    "longitude": "44.075661",
    "sort": "500",
    "change_at": "01.06.2018 14:24:41",
    "id": "10639"
  },
  {
    "code": "frompsb_13982",
    "type": "Банкомат",
    "name": "Банкомат ПАО ПРОМСВЯЗЬБАНК",
    "city": "Кстово [10648]",
    "activity": "Да",
    "address": "улица Зеленая; дом 6",
    "schedule": "круглосуточно",
    "latitude": "56.152913",
    "longitude": "44.188955",
    "sort": "500",
    "change_at": "01.06.2018 14:24:41",
    "id": "10649"
  },
  {
    "code": "frompsb_25877",
    "type": "Платёжный терминал",
    "name": "Платёжный терминал ПАО ПРОМСВЯЗЬБАНК",
    "city": "Кстово [10648]",
    "activity": "Да",
    "address": "улица 40 лет Октября; дом 5",
    "schedule": "круглосуточно",
    "latitude": "56.148734",
    "longitude": "44.201651",
    "sort": "500",
    "change_at": "01.06.2018 14:24:41",
    "id": "10650"
  },
  {
    "code": "frompsb_25873",
    "type": "Банкомат",
    "name": "Банкомат ПАО ПРОМСВЯЗЬБАНК",
    "city": "Кстово [10648]",
    "activity": "Да",
    "address": "улица 40 лет Октября; дом 5",
    "schedule": "круглосуточно",
    "latitude": "56.148759",
    "longitude": "44.201624",
    "sort": "500",
    "change_at": "01.06.2018 14:24:41",
    "id": "10651"
  },
  {
    "code": "frompsb_1058",
    "type": "Банкомат",
    "name": "Банкомат ПАО ПРОМСВЯЗЬБАНК",
    "city": "Кинешма [10656]",
    "activity": "Да",
    "address": "улица Сеченова; дом 3 А",
    "schedule": "пн. 10:00-21:00; вт.-вс. 09:00-21:00",
    "latitude": "57.447285",
    "longitude": "42.132532",
    "sort": "500",
    "change_at": "25.05.2018 10:15:44",
    "id": "10657"
  },
  {
    "code": "frompsb_6825",
    "type": "Банкомат",
    "name": "Банкомат ПАО ПРОМСВЯЗЬБАНК",
    "city": "Кинешма [10656]",
    "activity": "Да",
    "address": "улица Островского; дом 2",
    "schedule": "круглосуточно",
    "latitude": "57.44434",
    "longitude": "42.153962",
    "sort": "500",
    "change_at": "01.06.2018 14:24:41",
    "id": "10660"
  },
  {
    "code": "frompsb_5040",
    "type": "Банкомат",
    "name": "Банкомат ПАО ПРОМСВЯЗЬБАНК",
    "city": "Кинешма [10656]",
    "activity": "Да",
    "address": "площадь Революции; дом 4",
    "schedule": "круглосуточно",
    "latitude": "57.442868",
    "longitude": "42.1708",
    "sort": "500",
    "change_at": "01.06.2018 14:24:41",
    "id": "10662"
  },
  {
    "code": "frompsb_45228",
    "type": "Банкомат",
    "name": "Банкомат ПАО ПРОМСВЯЗЬБАНК",
    "city": "Кинешма [10656]",
    "activity": "Да",
    "address": "улица Сеченова; дом 3 А",
    "schedule": "пн.-вс. 08:00-23:00",
    "latitude": "57.447285",
    "longitude": "42.132532",
    "sort": "500",
    "change_at": "01.06.2018 14:24:41",
    "id": "12418"
  },
  {
    "code": "frompsb_6091",
    "type": "Платёжный терминал",
    "name": "Платёжный терминал ПАО ПРОМСВЯЗЬБАНК",
    "city": "Городец [10658]",
    "activity": "Да",
    "address": "площадь Пролетарская; дом 9",
    "schedule": "пн.-пт. 09:00-19:00; сб.-вс. 09:00-18:00",
    "latitude": "56.646412",
    "longitude": "43.470698",
    "sort": "500",
    "change_at": "01.06.2018 14:24:41",
    "id": "10659"
  },
  {
    "code": "frompsb_22204",
    "type": "Банкомат",
    "name": "Банкомат ПАО ПРОМСВЯЗЬБАНК",
    "city": "Сызрань [10674]",
    "activity": "Да",
    "address": "улица 50 лет Октября; дом 54",
    "schedule": "круглосуточно",
    "latitude": "53.121626",
    "longitude": "48.398533",
    "sort": "500",
    "change_at": "01.06.2018 14:24:41",
    "id": "10675"
  },
  {
    "code": "frompsb_25129",
    "type": "Платёжный терминал",
    "name": "Платёжный терминал ПАО ПРОМСВЯЗЬБАНК",
    "city": "Сызрань [10674]",
    "activity": "Да",
    "address": "проспект 50 лет Октября; дом 54",
    "schedule": "пн.-пт. 09:00-18:00; сб.-вс. выходной",
    "latitude": "53.122105",
    "longitude": "48.398098",
    "sort": "500",
    "change_at": "01.06.2018 14:24:41",
    "id": "10676"
  },
  {
    "code": "frompsb_25886",
    "type": "Банкомат",
    "name": "Банкомат ПАО ПРОМСВЯЗЬБАНК",
    "city": "Сызрань [10674]",
    "activity": "Да",
    "address": "улица Интернациональная; дом 151 А",
    "schedule": "пн.-вс. 09:00-23:00",
    "latitude": "53.159627",
    "longitude": "48.437205",
    "sort": "500",
    "change_at": "01.06.2018 14:24:42",
    "id": "10681"
  },
  {
    "code": "frompsb_24056",
    "type": "Банкомат",
    "name": "Банкомат ПАО ПРОМСВЯЗЬБАНК",
    "city": "Сызрань [10674]",
    "activity": "Да",
    "address": "улица Дамбовская; дом 1",
    "schedule": "круглосуточно",
    "latitude": "53.141422",
    "longitude": "48.466248",
    "sort": "500",
    "change_at": "01.06.2018 14:24:42",
    "id": "10682"
  },
  {
    "code": "frompsb_25774",
    "type": "Банкомат",
    "name": "Банкомат ПАО ПРОМСВЯЗЬБАНК",
    "city": "Сызрань [10674]",
    "activity": "Да",
    "address": "улица Советская; дом 102",
    "schedule": "круглосуточно",
    "latitude": "53.14974",
    "longitude": "48.473578",
    "sort": "500",
    "change_at": "01.06.2018 14:24:42",
    "id": "10683"
  },
  {
    "code": "frompsb_25130",
    "type": "Платёжный терминал",
    "name": "Платёжный терминал ПАО ПРОМСВЯЗЬБАНК",
    "city": "Сызрань [10674]",
    "activity": "Да",
    "address": "улица Советская; дом 102",
    "schedule": "круглосуточно",
    "latitude": "53.156553",
    "longitude": "48.476937",
    "sort": "500",
    "change_at": "01.06.2018 14:24:42",
    "id": "10684"
  },
  {
    "code": "frompsb_25131",
    "type": "Платёжный терминал",
    "name": "Платёжный терминал ПАО ПРОМСВЯЗЬБАНК",
    "city": "Сызрань [10674]",
    "activity": "Да",
    "address": "улица Советская; дом 102",
    "schedule": "круглосуточно",
    "latitude": "53.156634",
    "longitude": "48.477036",
    "sort": "500",
    "change_at": "01.06.2018 14:24:42",
    "id": "10685"
  },
  {
    "code": "frompsb_25887",
    "type": "Банкомат",
    "name": "Банкомат ПАО ПРОМСВЯЗЬБАНК",
    "city": "Сызрань [10674]",
    "activity": "Да",
    "address": "Ульяновское шоссе; дом 13",
    "schedule": "пн.-вс. 09:00-21:00",
    "latitude": "53.179297",
    "longitude": "48.488247",
    "sort": "500",
    "change_at": "01.06.2018 14:24:42",
    "id": "10686"
  },
  {
    "code": "frompsb_29962",
    "type": "Банкомат",
    "name": "Банкомат ПАО ПРОМСВЯЗЬБАНК",
    "city": "Сызрань [10674]",
    "activity": "Да",
    "address": "улица Образцовская; дом 97",
    "schedule": "пн.-вс. 09:00-22:00",
    "latitude": "53.128442",
    "longitude": "48.430384",
    "sort": "500",
    "change_at": "01.06.2018 14:24:42",
    "id": "11594"
  },
  {
    "code": "frompsb_5432",
    "type": "Платёжный терминал",
    "name": "Платёжный терминал ПАО ПРОМСВЯЗЬБАНК",
    "city": "Бор [10677]",
    "activity": "Да",
    "address": "улица Ленина; дом 100",
    "schedule": "пн.-пт. 09:00-18:00; сб.-вс. выходной",
    "latitude": "56.359341",
    "longitude": "44.050196",
    "sort": "500",
    "change_at": "01.06.2018 14:24:42",
    "id": "10678"
  },
  {
    "code": "frompsb_812",
    "type": "Банкомат",
    "name": "Банкомат ПАО ПРОМСВЯЗЬБАНК",
    "city": "Бор [10677]",
    "activity": "Да",
    "address": "улица Ленина; дом 100",
    "schedule": "круглосуточно",
    "latitude": "56.359387",
    "longitude": "44.05016",
    "sort": "500",
    "change_at": "01.06.2018 14:24:42",
    "id": "10679"
  },
  {
    "code": "frompsb_14379",
    "type": "Банкомат",
    "name": "Банкомат ПАО ПРОМСВЯЗЬБАНК",
    "city": "Бор [10677]",
    "activity": "Да",
    "address": "Стеклозаводское шоссе; дом 1 А",
    "schedule": "круглосуточно",
    "latitude": "56.341236",
    "longitude": "44.092289",
    "sort": "500",
    "change_at": "01.06.2018 14:24:42",
    "id": "10680"
  },
  {
    "code": "frompsb_22113",
    "type": "Банкомат",
    "name": "Банкомат ПАО ПРОМСВЯЗЬБАНК",
    "city": "Вологда [10687]",
    "activity": "Да",
    "address": "Пошехонское шоссе; дом 22",
    "schedule": "пн.-вс. 07:00-01:00",
    "latitude": "59.197192",
    "longitude": "39.859463",
    "sort": "500",
    "change_at": "01.06.2018 14:24:42",
    "id": "10688"
  },
  {
    "code": "frompsb_1087",
    "type": "Банкомат",
    "name": "Банкомат ПАО ПРОМСВЯЗЬБАНК",
    "city": "Вологда [10687]",
    "activity": "Да",
    "address": "улица Ленинградская; дом 130",
    "schedule": "пн.-вс. 08:00-21:00",
    "latitude": "59.209385",
    "longitude": "39.844344",
    "sort": "500",
    "change_at": "18.05.2018 10:12:30",
    "id": "10689"
  },
  {
    "code": "frompsb_22136",
    "type": "Банкомат",
    "name": "Банкомат ПАО ПРОМСВЯЗЬБАНК",
    "city": "Вологда [10687]",
    "activity": "Да",
    "address": "улица Мира; дом 82",
    "schedule": "пн.-вс. 08:00-06:00",
    "latitude": "59.211557",
    "longitude": "39.880759",
    "sort": "500",
    "change_at": "01.06.2018 14:24:42",
    "id": "10690"
  },
  {
    "code": "frompsb_1097",
    "type": "Банкомат",
    "name": "Банкомат ПАО ПРОМСВЯЗЬБАНК",
    "city": "Вологда [10687]",
    "activity": "Да",
    "address": "улица Ленина; дом 10",
    "schedule": "пн.-пт. 09:00-19:00; сб. 10:00-16:30; вс. выходной",
    "latitude": "59.220792",
    "longitude": "39.89549",
    "sort": "500",
    "change_at": "01.06.2018 14:24:42",
    "id": "10691"
  },
  {
    "code": "frompsb_13981",
    "type": "Банкомат",
    "name": "Банкомат ПАО ПРОМСВЯЗЬБАНК",
    "city": "Вологда [10687]",
    "activity": "Да",
    "address": "улица Горького; дом 129 А",
    "schedule": "пн.-вс. 08:00-20:00",
    "latitude": "59.214844",
    "longitude": "39.915279",
    "sort": "500",
    "change_at": "01.06.2018 14:24:42",
    "id": "10692"
  },
  {
    "code": "frompsb_33767",
    "type": "Банкомат",
    "name": "Банкомат ПАО ПРОМСВЯЗЬБАНК",
    "city": "Вологда [10687]",
    "activity": "Да",
    "address": "улица Ленинградская; дом 130",
    "schedule": "пн.-вс. 09:00-21:00",
    "latitude": "59.209385",
    "longitude": "39.844344",
    "sort": "500",
    "change_at": "01.06.2018 14:24:42",
    "id": "12222"
  },
  {
    "code": "frompsb_45222",
    "type": "Платёжный терминал",
    "name": "Платёжный терминал ПАО ПРОМСВЯЗЬБАНК",
    "city": "Вологда [10687]",
    "activity": "Да",
    "address": "улица Ленина; дом 10",
    "schedule": "пн.-пт. 09:00-19:00; сб. 10:00-16:30; вс. выходной",
    "latitude": "59.220815",
    "longitude": "39.895373",
    "sort": "500",
    "change_at": "01.06.2018 14:24:42",
    "id": "12223"
  },
  {
    "code": "frompsb_22622",
    "type": "Банкомат",
    "name": "Банкомат ПАО ПРОМСВЯЗЬБАНК",
    "city": "пгт. Вохтога [10693]",
    "activity": "Да",
    "address": "улица Железнодорожная; дом 83",
    "schedule": "круглосуточно",
    "latitude": "58.822144",
    "longitude": "41.035632",
    "sort": "500",
    "change_at": "01.06.2018 14:24:42",
    "id": "10694"
  },
  {
    "code": "frompsb_22284",
    "type": "Банкомат",
    "name": "Банкомат ПАО ПРОМСВЯЗЬБАНК",
    "city": "Чапаевск [10695]",
    "activity": "Да",
    "address": "улица Куйбышева; дом 25",
    "schedule": "пн.-вс. 09:00-20:00",
    "latitude": "52.978448",
    "longitude": "49.707872",
    "sort": "500",
    "change_at": "01.06.2018 14:24:42",
    "id": "10696"
  },
  {
    "code": "frompsb_28089",
    "type": "Банкомат",
    "name": "Банкомат ПАО ПРОМСВЯЗЬБАНК",
    "city": "с. Ягодное [10697]",
    "activity": "Да",
    "address": "улица Грачева; дом 1 В",
    "schedule": "пн.-вс. 09:00-21:00",
    "latitude": "53.598952",
    "longitude": "49.040235",
    "sort": "500",
    "change_at": "01.06.2018 14:24:42",
    "id": "10698"
  },
  {
    "code": "frompsb_6359",
    "type": "Платёжный терминал",
    "name": "Платёжный терминал ПАО ПРОМСВЯЗЬБАНК",
    "city": "Сокол [10699]",
    "activity": "Да",
    "address": "улица Советская; дом 87",
    "schedule": "пн.-вс. 09:00-20:00",
    "latitude": "59.465312",
    "longitude": "40.10872",
    "sort": "500",
    "change_at": "01.06.2018 14:24:42",
    "id": "10700"
  },
  {
    "code": "frompsb_6315",
    "type": "Банкомат",
    "name": "Банкомат ПАО ПРОМСВЯЗЬБАНК",
    "city": "Сокол [10699]",
    "activity": "Да",
    "address": "улица Советская; дом 87",
    "schedule": "пн.-вс. 09:00-20:00",
    "latitude": "59.465388",
    "longitude": "40.109578",
    "sort": "500",
    "change_at": "04.05.2018 10:06:24",
    "id": "10701"
  },
  {
    "code": "frompsb_30213",
    "type": "Банкомат",
    "name": "Банкомат ПАО ПРОМСВЯЗЬБАНК",
    "city": "Сокол [10699]",
    "activity": "Да",
    "address": "улица Советская; дом 87",
    "schedule": "пн.-вс. 09:00-20:00",
    "latitude": "59.465388",
    "longitude": "40.109578",
    "sort": "500",
    "change_at": "01.06.2018 14:24:42",
    "id": "12051"
  },
  {
    "code": "frompsb_26000",
    "type": "Банкомат",
    "name": "Банкомат ПАО ПРОМСВЯЗЬБАНК",
    "city": "Ульяновск [10702]",
    "activity": "Да",
    "address": "улица Рябикова; дом 21 Б",
    "schedule": "пн.-вс. 08:00-21:00",
    "latitude": "54.285868",
    "longitude": "48.303376",
    "sort": "500",
    "change_at": "01.06.2018 14:24:42",
    "id": "10703"
  },
  {
    "code": "frompsb_22383",
    "type": "Платёжный терминал",
    "name": "Платёжный терминал ПАО ПРОМСВЯЗЬБАНК",
    "city": "Ульяновск [10702]",
    "activity": "Да",
    "address": "улица Гончарова; дом 1/17",
    "schedule": "круглосуточно",
    "latitude": "54.308419",
    "longitude": "48.395629",
    "sort": "500",
    "change_at": "01.06.2018 14:24:43",
    "id": "10740"
  },
  {
    "code": "frompsb_22288",
    "type": "Банкомат",
    "name": "Банкомат ПАО ПРОМСВЯЗЬБАНК",
    "city": "Ульяновск [10702]",
    "activity": "Да",
    "address": "улица Гончарова; дом 1/17",
    "schedule": "круглосуточно",
    "latitude": "54.30849",
    "longitude": "48.395747",
    "sort": "500",
    "change_at": "01.06.2018 14:24:43",
    "id": "10741"
  },
  {
    "code": "frompsb_25128",
    "type": "Платёжный терминал",
    "name": "Платёжный терминал ПАО ПРОМСВЯЗЬБАНК",
    "city": "Ульяновск [10702]",
    "activity": "Да",
    "address": "улица Гончарова; дом 1/17",
    "schedule": "пн.-пт. 09:00-18:00; сб.-вс. выходной",
    "latitude": "54.308543",
    "longitude": "48.395718",
    "sort": "500",
    "change_at": "01.06.2018 14:24:43",
    "id": "10742"
  },
  {
    "code": "frompsb_25879",
    "type": "Банкомат",
    "name": "Банкомат ПАО ПРОМСВЯЗЬБАНК",
    "city": "Ульяновск [10702]",
    "activity": "Да",
    "address": "улица Карла Маркса; дом 13 А",
    "schedule": "пн.-вс. 10:00-20:00",
    "latitude": "54.319866",
    "longitude": "48.395876",
    "sort": "500",
    "change_at": "01.06.2018 14:24:43",
    "id": "10746"
  },
  {
    "code": "frompsb_26205",
    "type": "Банкомат",
    "name": "Банкомат ПАО ПРОМСВЯЗЬБАНК",
    "city": "Ульяновск [10702]",
    "activity": "Да",
    "address": "Московское шоссе; 91",
    "schedule": "пн.-вс. 10:00-21:00",
    "latitude": "54.305141",
    "longitude": "48.352449",
    "sort": "500",
    "change_at": "01.06.2018 14:24:42",
    "id": "12052"
  },
  {
    "code": "frompsb_28019",
    "type": "Банкомат",
    "name": "Банкомат ПАО ПРОМСВЯЗЬБАНК",
    "city": "Тольятти [10704]",
    "activity": "Да",
    "address": "бульвар Королева; дом 20",
    "schedule": "пн.-вс. 08:00-01:00",
    "latitude": "53.510795",
    "longitude": "49.261139",
    "sort": "500",
    "change_at": "01.06.2018 14:24:42",
    "id": "10705"
  },
  {
    "code": "frompsb_27864",
    "type": "Банкомат",
    "name": "Банкомат ПАО ПРОМСВЯЗЬБАНК",
    "city": "Тольятти [10704]",
    "activity": "Да",
    "address": "проспект Московский; дом 30",
    "schedule": "пн.-вс. 08:00-21:00",
    "latitude": "53.523593",
    "longitude": "49.256711",
    "sort": "500",
    "change_at": "01.06.2018 14:24:42",
    "id": "10706"
  },
  {
    "code": "frompsb_27442",
    "type": "Банкомат",
    "name": "Банкомат ПАО ПРОМСВЯЗЬБАНК",
    "city": "Тольятти [10704]",
    "activity": "Да",
    "address": "улица Спортивная; дом 4 В",
    "schedule": "пн.-вс. 09:00-23:00",
    "latitude": "53.49924",
    "longitude": "49.287937",
    "sort": "500",
    "change_at": "01.06.2018 14:24:42",
    "id": "10707"
  },
  {
    "code": "frompsb_27654",
    "type": "Банкомат",
    "name": "Банкомат ПАО ПРОМСВЯЗЬБАНК",
    "city": "Тольятти [10704]",
    "activity": "Да",
    "address": "Приморский бульвар; дом 29 А",
    "schedule": "пн.-вс. 09:00-20:00",
    "latitude": "53.505817",
    "longitude": "49.281918",
    "sort": "500",
    "change_at": "01.06.2018 14:24:42",
    "id": "10708"
  },
  {
    "code": "frompsb_25875",
    "type": "Банкомат",
    "name": "Банкомат ПАО ПРОМСВЯЗЬБАНК",
    "city": "Тольятти [10704]",
    "activity": "Да",
    "address": "улица Революционная; дом 52 А",
    "schedule": "пн.-вс. 10:00-20:00",
    "latitude": "53.517988",
    "longitude": "49.272036",
    "sort": "500",
    "change_at": "01.06.2018 14:24:42",
    "id": "10709"
  },
  {
    "code": "frompsb_28097",
    "type": "Банкомат",
    "name": "Банкомат ПАО ПРОМСВЯЗЬБАНК",
    "city": "Тольятти [10704]",
    "activity": "Да",
    "address": "улица Революционная; дом 52 А",
    "schedule": "пн.-вс. 10:00-20:00",
    "latitude": "53.517988",
    "longitude": "49.272036",
    "sort": "500",
    "change_at": "01.06.2018 14:24:42",
    "id": "10710"
  },
  {
    "code": "frompsb_27437",
    "type": "Банкомат",
    "name": "Банкомат ПАО ПРОМСВЯЗЬБАНК",
    "city": "Тольятти [10704]",
    "activity": "Да",
    "address": "улица Свердлова; дом 51",
    "schedule": "пн.-вс. 09:00-22:00",
    "latitude": "53.528973",
    "longitude": "49.264005",
    "sort": "500",
    "change_at": "01.06.2018 14:24:42",
    "id": "10711"
  },
  {
    "code": "frompsb_27845",
    "type": "Банкомат",
    "name": "Банкомат ПАО ПРОМСВЯЗЬБАНК",
    "city": "Тольятти [10704]",
    "activity": "Да",
    "address": "проспект Степана Разина; дом 60",
    "schedule": "пн.-вс. 09:00-20:00",
    "latitude": "53.507814",
    "longitude": "49.290852",
    "sort": "500",
    "change_at": "01.06.2018 14:24:42",
    "id": "10712"
  },
  {
    "code": "frompsb_25882",
    "type": "Банкомат",
    "name": "Банкомат ПАО ПРОМСВЯЗЬБАНК",
    "city": "Тольятти [10704]",
    "activity": "Да",
    "address": "улица Фрунзе; дом 23",
    "schedule": "пн.-вс. 09:00-22:00",
    "latitude": "53.513857",
    "longitude": "49.284199",
    "sort": "500",
    "change_at": "01.06.2018 14:24:42",
    "id": "10713"
  },
  {
    "code": "frompsb_22201",
    "type": "Банкомат",
    "name": "Банкомат ПАО ПРОМСВЯЗЬБАНК",
    "city": "Тольятти [10704]",
    "activity": "Да",
    "address": "улица Революционная; дом 32",
    "schedule": "круглосуточно",
    "latitude": "53.525435",
    "longitude": "49.274399",
    "sort": "500",
    "change_at": "01.06.2018 14:24:42",
    "id": "10714"
  },
  {
    "code": "frompsb_22025",
    "type": "Платёжный терминал",
    "name": "Платёжный терминал ПАО ПРОМСВЯЗЬБАНК",
    "city": "Тольятти [10704]",
    "activity": "Да",
    "address": "улица Революционная; дом 32",
    "schedule": "пн.-пт. 10:00-19:00; сб.-вс. выходной",
    "latitude": "53.525389",
    "longitude": "49.274465",
    "sort": "500",
    "change_at": "01.06.2018 14:24:42",
    "id": "10715"
  },
  {
    "code": "frompsb_25639",
    "type": "Платёжный терминал",
    "name": "Платёжный терминал ПАО ПРОМСВЯЗЬБАНК",
    "city": "Тольятти [10704]",
    "activity": "Да",
    "address": "улица Революционная; дом 32",
    "schedule": "пн.-пт. 10:00-19:00; сб.-вс. выходной",
    "latitude": "53.525422",
    "longitude": "49.274477",
    "sort": "500",
    "change_at": "01.06.2018 14:24:42",
    "id": "10716"
  },
  {
    "code": "frompsb_27023",
    "type": "Банкомат",
    "name": "Банкомат ПАО ПРОМСВЯЗЬБАНК",
    "city": "Тольятти [10704]",
    "activity": "Да",
    "address": "проспект Московский; дом 7",
    "schedule": "пн.-вс. 09:00-20:00",
    "latitude": "53.536385",
    "longitude": "49.264374",
    "sort": "500",
    "change_at": "01.06.2018 14:24:42",
    "id": "10717"
  },
  {
    "code": "frompsb_22163",
    "type": "Банкомат",
    "name": "Банкомат ПАО ПРОМСВЯЗЬБАНК",
    "city": "Тольятти [10704]",
    "activity": "Да",
    "address": "Ленинский проспект; дом 17",
    "schedule": "пн.-вс. 09:00-22:00",
    "latitude": "53.51801",
    "longitude": "49.290883",
    "sort": "500",
    "change_at": "18.05.2018 10:12:31",
    "id": "10718"
  },
  {
    "code": "frompsb_28094",
    "type": "Банкомат",
    "name": "Банкомат ПАО ПРОМСВЯЗЬБАНК",
    "city": "Тольятти [10704]",
    "activity": "Да",
    "address": "улица Жукова; дом 28",
    "schedule": "пн.-вс. 08:00-01:00",
    "latitude": "53.510064",
    "longitude": "49.300199",
    "sort": "500",
    "change_at": "01.06.2018 14:24:42",
    "id": "10719"
  },
  {
    "code": "frompsb_26466",
    "type": "Банкомат",
    "name": "Банкомат ПАО ПРОМСВЯЗЬБАНК",
    "city": "Тольятти [10704]",
    "activity": "Да",
    "address": "улица Фрунзе; дом 6",
    "schedule": "пн.-вс. 09:00-20:00",
    "latitude": "53.513977",
    "longitude": "49.298222",
    "sort": "500",
    "change_at": "25.05.2018 10:15:44",
    "id": "10720"
  },
  {
    "code": "frompsb_6904",
    "type": "Банкомат",
    "name": "Банкомат ПАО ПРОМСВЯЗЬБАНК",
    "city": "Волгоград [9764]",
    "activity": "Да",
    "address": "улица Республиканская; дом 4",
    "schedule": "пн.-вс. 08:00-23:00",
    "latitude": "48.769853",
    "longitude": "44.479285",
    "sort": "500",
    "change_at": "01.06.2018 14:24:28",
    "id": "9791"
  },
  {
    "code": "frompsb_22149",
    "type": "Банкомат",
    "name": "Банкомат ПАО ПРОМСВЯЗЬБАНК",
    "city": "Волгоград [9764]",
    "activity": "Да",
    "address": "улица 8-й Воздушной Армии; дом 35",
    "schedule": "круглосуточно",
    "latitude": "48.754577",
    "longitude": "44.501615",
    "sort": "500",
    "change_at": "01.06.2018 14:24:28",
    "id": "9792"
  },
  {
    "code": "frompsb_21757",
    "type": "Платёжный терминал",
    "name": "Платёжный терминал ПАО ПРОМСВЯЗЬБАНК",
    "city": "Волгоград [9764]",
    "activity": "Да",
    "address": "улица 8-й Воздушной Армии; дом 35",
    "schedule": "пн.-пт. 09:00-19:00; сб.-вс. выходной",
    "latitude": "48.754892",
    "longitude": "44.501536",
    "sort": "500",
    "change_at": "01.06.2018 14:24:28",
    "id": "9793"
  },
  {
    "code": "frompsb_451",
    "type": "Банкомат",
    "name": "Банкомат ПАО ПРОМСВЯЗЬБАНК",
    "city": "Волгоград [9764]",
    "activity": "Да",
    "address": "улица 8-й Воздушной Армии; дом 38 А",
    "schedule": "круглосуточно",
    "latitude": "48.754018",
    "longitude": "44.504501",
    "sort": "500",
    "change_at": "01.06.2018 14:24:28",
    "id": "9794"
  },
  {
    "code": "frompsb_6906",
    "type": "Банкомат",
    "name": "Банкомат ПАО ПРОМСВЯЗЬБАНК",
    "city": "Волгоград [9764]",
    "activity": "Да",
    "address": "проспект Ленина; дом 54 Б",
    "schedule": "пн.-вс. 09:00-00:00",
    "latitude": "48.725725",
    "longitude": "44.54136",
    "sort": "500",
    "change_at": "01.06.2018 14:24:28",
    "id": "9795"
  },
  {
    "code": "frompsb_6360",
    "type": "Банкомат",
    "name": "Банкомат ПАО ПРОМСВЯЗЬБАНК",
    "city": "Волгоград [9764]",
    "activity": "Да",
    "address": "улица Маршала Чуйкова; дом 65 А",
    "schedule": "круглосуточно",
    "latitude": "48.724954",
    "longitude": "44.542904",
    "sort": "500",
    "change_at": "01.06.2018 14:24:28",
    "id": "9796"
  },
  {
    "code": "frompsb_5401",
    "type": "Платёжный терминал",
    "name": "Платёжный терминал ПАО ПРОМСВЯЗЬБАНК",
    "city": "Волгоград [9764]",
    "activity": "Да",
    "address": "проспект Маршала Чуйкова; дом 65 А",
    "schedule": "пн.-пт. 09:00-19:30; сб. 10:00-16:30; вс. выходной",
    "latitude": "48.725023",
    "longitude": "44.542952",
    "sort": "500",
    "change_at": "01.06.2018 14:24:28",
    "id": "9797"
  },
  {
    "code": "frompsb_453",
    "type": "Банкомат",
    "name": "Банкомат ПАО ПРОМСВЯЗЬБАНК",
    "city": "Волгоград [9764]",
    "activity": "Да",
    "address": "проспект Ленина; дом 92",
    "schedule": "круглосуточно",
    "latitude": "48.745752",
    "longitude": "44.549239",
    "sort": "500",
    "change_at": "01.06.2018 14:24:28",
    "id": "9800"
  },
  {
    "code": "frompsb_22297",
    "type": "Банкомат",
    "name": "Банкомат ПАО ПРОМСВЯЗЬБАНК",
    "city": "Волгоград [9764]",
    "activity": "Да",
    "address": "улица Библиотечная; дом 16 А",
    "schedule": "круглосуточно",
    "latitude": "48.766768",
    "longitude": "44.541646",
    "sort": "500",
    "change_at": "01.06.2018 14:24:28",
    "id": "9801"
  },
  {
    "code": "frompsb_21621",
    "type": "Платёжный терминал",
    "name": "Платёжный терминал ПАО ПРОМСВЯЗЬБАНК",
    "city": "Волгоград [9764]",
    "activity": "Да",
    "address": "проспект Ленина б/н",
    "schedule": "круглосуточно",
    "latitude": "48.762534",
    "longitude": "44.559627",
    "sort": "500",
    "change_at": "01.06.2018 14:24:28",
    "id": "9802"
  },
  {
    "code": "frompsb_22395",
    "type": "Банкомат",
    "name": "Банкомат ПАО ПРОМСВЯЗЬБАНК",
    "city": "Волгоград [9764]",
    "activity": "Да",
    "address": "улица Штеменко; дом 3 А",
    "schedule": "пн.-вс. 09:00-22:00",
    "latitude": "48.771166",
    "longitude": "44.56432",
    "sort": "500",
    "change_at": "01.06.2018 14:24:28",
    "id": "9803"
  },
  {
    "code": "frompsb_22409",
    "type": "Банкомат",
    "name": "Банкомат ПАО ПРОМСВЯЗЬБАНК",
    "city": "Волгоград [9764]",
    "activity": "Да",
    "address": "улица Маршала Еременко; дом 130 А",
    "schedule": "пн.-вс. 09:30-21:00",
    "latitude": "48.784719",
    "longitude": "44.565641",
    "sort": "500",
    "change_at": "01.06.2018 14:24:28",
    "id": "9804"
  },
  {
    "code": "frompsb_6284",
    "type": "Банкомат",
    "name": "Банкомат ПАО ПРОМСВЯЗЬБАНК",
    "city": "Волгоград [9764]",
    "activity": "Да",
    "address": "проспект Ленина",
    "schedule": "круглосуточно",
    "latitude": "48.776573",
    "longitude": "44.576071",
    "sort": "500",
    "change_at": "01.06.2018 14:24:28",
    "id": "9805"
  },
  {
    "code": "frompsb_6339",
    "type": "Банкомат",
    "name": "Банкомат ПАО ПРОМСВЯЗЬБАНК",
    "city": "Волгоград [9764]",
    "activity": "Да",
    "address": "улица Ополченская; дом 9",
    "schedule": "пн.-пт. 09:00-19:00; сб.-вс. выходной",
    "latitude": "48.800519",
    "longitude": "44.598468",
    "sort": "500",
    "change_at": "01.06.2018 14:24:28",
    "id": "9808"
  },
  {
    "code": "frompsb_21638",
    "type": "Платёжный терминал",
    "name": "Платёжный терминал ПАО ПРОМСВЯЗЬБАНК",
    "city": "Волгоград [9764]",
    "activity": "Да",
    "address": "улица Ополченская; дом 9",
    "schedule": "пн.-пт. 09:00-19:00; сб.-вс. выходной",
    "latitude": "48.800622",
    "longitude": "44.598584",
    "sort": "500",
    "change_at": "01.06.2018 14:24:28",
    "id": "9809"
  },
  {
    "code": "frompsb_23733",
    "type": "Банкомат",
    "name": "Банкомат ПАО ПРОМСВЯЗЬБАНК",
    "city": "Волгоград [9764]",
    "activity": "Да",
    "address": "площадь Дзержинского; дом 1 Б",
    "schedule": "пн.-вс. 10:00-21:00",
    "latitude": "48.800418",
    "longitude": "44.605091",
    "sort": "500",
    "change_at": "01.06.2018 14:24:28",
    "id": "9811"
  },
  {
    "code": "frompsb_22410",
    "type": "Банкомат",
    "name": "Банкомат ПАО ПРОМСВЯЗЬБАНК",
    "city": "Волгоград [9764]",
    "activity": "Да",
    "address": "улица Менжинского; дом 11 А",
    "schedule": "круглосуточно",
    "latitude": "48.816028",
    "longitude": "44.623801",
    "sort": "500",
    "change_at": "01.06.2018 14:24:28",
    "id": "9818"
  },
  {
    "code": "frompsb_22296",
    "type": "Банкомат",
    "name": "Банкомат ПАО ПРОМСВЯЗЬБАНК",
    "city": "Волгоград [9764]",
    "activity": "Да",
    "address": "улица Николая Отрады; дом 1",
    "schedule": "круглосуточно",
    "latitude": "48.818351",
    "longitude": "44.629227",
    "sort": "500",
    "change_at": "01.06.2018 14:24:28",
    "id": "9819"
  },
  {
    "code": "frompsb_29964",
    "type": "Банкомат",
    "name": "Банкомат ПАО ПРОМСВЯЗЬБАНК",
    "city": "Волгоград [9764]",
    "activity": "Да",
    "address": "улица Казахская; дом 1",
    "schedule": "пн.-сб. 08:00-17:00; вс. выходной",
    "latitude": "48.67591",
    "longitude": "44.45567",
    "sort": "500",
    "change_at": "01.06.2018 14:24:27",
    "id": "12036"
  },
  {
    "code": "frompsb_156",
    "type": "Банкомат",
    "name": "Банкомат ПАО ПРОМСВЯЗЬБАНК",
    "city": "Вязьма [9777]",
    "activity": "Да",
    "address": "улица Панино; дом 7",
    "schedule": "круглосуточно",
    "latitude": "55.186026",
    "longitude": "34.335771",
    "sort": "500",
    "change_at": "24.04.2018 14:54:18",
    "id": "9778"
  },
  {
    "code": "frompsb_1236",
    "type": "Банкомат",
    "name": "Банкомат ПАО ПРОМСВЯЗЬБАНК",
    "city": "пгт. Светлый Яр; Волгоградская область [9781]",
    "activity": "Да",
    "address": "микрорайон 2-й; дом 6 А",
    "schedule": "круглосуточно",
    "latitude": "48.471289",
    "longitude": "44.763163",
    "sort": "500",
    "change_at": "01.06.2018 14:24:27",
    "id": "9782"
  },
  {
    "code": "frompsb_22150",
    "type": "Банкомат",
    "name": "Банкомат ПАО ПРОМСВЯЗЬБАНК",
    "city": "р.п. Городище [9798]",
    "activity": "Да",
    "address": "площадь Павших Борцов; дом 1",
    "schedule": "круглосуточно",
    "latitude": "48.805372",
    "longitude": "44.477136",
    "sort": "500",
    "change_at": "01.06.2018 14:24:28",
    "id": "9799"
  },
  {
    "code": "frompsb_25893",
    "type": "Банкомат",
    "name": "Банкомат ПАО ПРОМСВЯЗЬБАНК",
    "city": "Псков [9806]",
    "activity": "Да",
    "address": "улица Коммунальная; дом 73",
    "schedule": "пн.-вс. 10:00-21:00",
    "latitude": "57.815531",
    "longitude": "28.276626",
    "sort": "500",
    "change_at": "01.06.2018 14:24:28",
    "id": "9807"
  },
  {
    "code": "frompsb_20664",
    "type": "Банкомат",
    "name": "Банкомат ПАО ПРОМСВЯЗЬБАНК",
    "city": "Псков [9806]",
    "activity": "Да",
    "address": "улица Народная; дом 49 А",
    "schedule": "пн.-вс. 09:00-23:00",
    "latitude": "57.812709",
    "longitude": "28.30752",
    "sort": "500",
    "change_at": "01.06.2018 14:24:28",
    "id": "9810"
  },
  {
    "code": "frompsb_4991",
    "type": "Банкомат",
    "name": "Банкомат ПАО ПРОМСВЯЗЬБАНК",
    "city": "Псков [9806]",
    "activity": "Да",
    "address": "улица Коммунальная; дом 41",
    "schedule": "круглосуточно",
    "latitude": "57.821172",
    "longitude": "28.291404",
    "sort": "500",
    "change_at": "01.06.2018 14:24:28",
    "id": "9812"
  },
  {
    "code": "frompsb_18255",
    "type": "Банкомат",
    "name": "Банкомат ПАО ПРОМСВЯЗЬБАНК",
    "city": "Псков [9806]",
    "activity": "Да",
    "address": "Рижский проспект; дом 16",
    "schedule": "круглосуточно",
    "latitude": "57.817002",
    "longitude": "28.315015",
    "sort": "500",
    "change_at": "01.06.2018 14:24:28",
    "id": "9813"
  },
  {
    "code": "frompsb_776",
    "type": "Банкомат",
    "name": "Банкомат ПАО ПРОМСВЯЗЬБАНК",
    "city": "Псков [9806]",
    "activity": "Да",
    "address": "улица Яна Фабрициуса; дом 10",
    "schedule": "пн.-пт. 10:00-20:00; сб.-вс. 10:00-19:00",
    "latitude": "57.807153",
    "longitude": "28.34669",
    "sort": "500",
    "change_at": "01.06.2018 14:24:28",
    "id": "9814"
  },
  {
    "code": "frompsb_18273",
    "type": "Платёжный терминал",
    "name": "Платёжный терминал ПАО ПРОМСВЯЗЬБАНК",
    "city": "Псков [9806]",
    "activity": "Да",
    "address": "улица Некрасова; дом 38/25",
    "schedule": "пн.-пт. 09:00-19:00; сб.-вс. выходной",
    "latitude": "57.818004",
    "longitude": "28.342844",
    "sort": "500",
    "change_at": "01.06.2018 14:24:28",
    "id": "9815"
  },
  {
    "code": "frompsb_25786",
    "type": "Банкомат",
    "name": "Банкомат ПАО ПРОМСВЯЗЬБАНК",
    "city": "Псков [9806]",
    "activity": "Да",
    "address": "улица Некрасова; дом 38/25",
    "schedule": "круглосуточно",
    "latitude": "57.817997",
    "longitude": "28.343143",
    "sort": "500",
    "change_at": "01.06.2018 14:24:28",
    "id": "9816"
  },
  {
    "code": "frompsb_26009",
    "type": "Банкомат",
    "name": "Банкомат ПАО ПРОМСВЯЗЬБАНК",
    "city": "Псков [9806]",
    "activity": "Да",
    "address": "улица Труда; дом 37 А",
    "schedule": "пн.-вс. 08:30-23:00",
    "latitude": "57.832217",
    "longitude": "28.345019",
    "sort": "500",
    "change_at": "01.06.2018 14:24:28",
    "id": "9820"
  },
  {
    "code": "frompsb_16588",
    "type": "Банкомат",
    "name": "Банкомат ПАО ПРОМСВЯЗЬБАНК",
    "city": "Псков [9806]",
    "activity": "Да",
    "address": "улица Труда; дом 50",
    "schedule": "круглосуточно",
    "latitude": "57.839027",
    "longitude": "28.349137",
    "sort": "500",
    "change_at": "01.06.2018 14:24:28",
    "id": "9821"
  },
  {
    "code": "frompsb_450",
    "type": "Банкомат",
    "name": "Банкомат ПАО ПРОМСВЯЗЬБАНК",
    "city": "Волжский [9827]",
    "activity": "Да",
    "address": "проспект Ленина; дом 95",
    "schedule": "круглосуточно",
    "latitude": "48.786772",
    "longitude": "44.752254",
    "sort": "500",
    "change_at": "01.06.2018 14:24:28",
    "id": "9828"
  },
  {
    "code": "frompsb_410",
    "type": "Банкомат",
    "name": "Банкомат ПАО ПРОМСВЯЗЬБАНК",
    "city": "Волжский [9827]",
    "activity": "Да",
    "address": "проспект Ленина; дом 48 Г",
    "schedule": "круглосуточно",
    "latitude": "48.797119",
    "longitude": "44.746164",
    "sort": "500",
    "change_at": "01.06.2018 14:24:28",
    "id": "9831"
  },
  {
    "code": "frompsb_6902",
    "type": "Банкомат",
    "name": "Банкомат ПАО ПРОМСВЯЗЬБАНК",
    "city": "Волжский [9827]",
    "activity": "Да",
    "address": "улица Карбышева; дом 47 А",
    "schedule": "пн.-вс. 10:00-22:00",
    "latitude": "48.777557",
    "longitude": "44.772871",
    "sort": "500",
    "change_at": "01.06.2018 14:24:28",
    "id": "9832"
  },
  {
    "code": "frompsb_22016",
    "type": "Банкомат",
    "name": "Банкомат ПАО ПРОМСВЯЗЬБАНК",
    "city": "Волжский [9827]",
    "activity": "Да",
    "address": "улица Александрова; дом 9 А",
    "schedule": "пн.-вс. 08:00-22:00",
    "latitude": "48.770812",
    "longitude": "44.792409",
    "sort": "500",
    "change_at": "01.06.2018 14:24:28",
    "id": "9836"
  },
  {
    "code": "frompsb_22170",
    "type": "Банкомат",
    "name": "Банкомат ПАО ПРОМСВЯЗЬБАНК",
    "city": "Волжский [9827]",
    "activity": "Да",
    "address": "улица Дружбы; дом 85 А",
    "schedule": "круглосуточно",
    "latitude": "48.763184",
    "longitude": "44.803443",
    "sort": "500",
    "change_at": "01.06.2018 14:24:28",
    "id": "9837"
  },
  {
    "code": "frompsb_5746",
    "type": "Платёжный терминал",
    "name": "Платёжный терминал ПАО ПРОМСВЯЗЬБАНК",
    "city": "Волжский [9827]",
    "activity": "Да",
    "address": "улица Дружбы; дом 85 А",
    "schedule": "пн.-пт. 09:00-19:30; сб. 10:00-16:30; вс. выходной",
    "latitude": "48.763169",
    "longitude": "44.803508",
    "sort": "500",
    "change_at": "01.06.2018 14:24:28",
    "id": "9838"
  },
  {
    "code": "frompsb_5443",
    "type": "Банкомат",
    "name": "Банкомат ПАО ПРОМСВЯЗЬБАНК",
    "city": "Волжский [9827]",
    "activity": "Да",
    "address": "улица Александрова; дом 18 А",
    "schedule": "пн.-вс. 08:00-23:00",
    "latitude": "48.771877",
    "longitude": "44.799781",
    "sort": "500",
    "change_at": "01.06.2018 14:24:28",
    "id": "9840"
  },
  {
    "code": "frompsb_454",
    "type": "Банкомат",
    "name": "Банкомат ПАО ПРОМСВЯЗЬБАНК",
    "city": "Волжский [9827]",
    "activity": "Да",
    "address": "улица Мира; дом 75",
    "schedule": "круглосуточно",
    "latitude": "48.769606",
    "longitude": "44.806695",
    "sort": "500",
    "change_at": "01.06.2018 14:24:28",
    "id": "9842"
  },
  {
    "code": "frompsb_27865",
    "type": "Банкомат",
    "name": "Банкомат ПАО ПРОМСВЯЗЬБАНК",
    "city": "Михайловка [9833]",
    "activity": "Да",
    "address": "улица Ленина; дом 84",
    "schedule": "пн.-вс. 08:00-21:00",
    "latitude": "50.052731",
    "longitude": "43.234641",
    "sort": "500",
    "change_at": "01.06.2018 14:24:28",
    "id": "9834"
  },
  {
    "code": "frompsb_9485",
    "type": "Банкомат",
    "name": "Банкомат ПАО ПРОМСВЯЗЬБАНК",
    "city": "Михайловка [9833]",
    "activity": "Да",
    "address": "улица Поперечная; дом 21",
    "schedule": "пн.-вс. 10:00-22:00",
    "latitude": "50.070106",
    "longitude": "43.215583",
    "sort": "500",
    "change_at": "01.06.2018 14:24:28",
    "id": "9835"
  },
  {
    "code": "frompsb_23741",
    "type": "Платёжный терминал",
    "name": "Платёжный терминал ПАО ПРОМСВЯЗЬБАНК",
    "city": "Михайловка [9833]",
    "activity": "Да",
    "address": "улица 2-я Краснознаменская; дом 63",
    "schedule": "пн.-пт. 09:00-19:30; сб. 10:00-16:30; вс. выходной",
    "latitude": "50.068202",
    "longitude": "43.227281",
    "sort": "500",
    "change_at": "01.06.2018 14:24:28",
    "id": "9839"
  },
  {
    "code": "frompsb_26212",
    "type": "Банкомат",
    "name": "Банкомат ПАО ПРОМСВЯЗЬБАНК",
    "city": "Михайловка [9833]",
    "activity": "Да",
    "address": "улица Обороны; дом 55",
    "schedule": "круглосуточно",
    "latitude": "50.072193",
    "longitude": "43.23259",
    "sort": "500",
    "change_at": "01.06.2018 14:24:28",
    "id": "9841"
  },
  {
    "code": "frompsb_9484",
    "type": "Банкомат",
    "name": "Банкомат ПАО ПРОМСВЯЗЬБАНК",
    "city": "Михайловка [9833]",
    "activity": "Да",
    "address": "улица 2-я Краснознаменская; дом 63",
    "schedule": "круглосуточно",
    "latitude": "50.066869",
    "longitude": "43.228357",
    "sort": "500",
    "change_at": "01.06.2018 14:24:28",
    "id": "11585"
  },
  {
    "code": "frompsb_22151",
    "type": "Банкомат",
    "name": "Банкомат ПАО ПРОМСВЯЗЬБАНК",
    "city": "с. Осиновая Гора; мкр. Левобережный [9851]",
    "activity": "Да",
    "address": "улица Аркадия Шипунова; дом 1 А",
    "schedule": "пн.-вс. 08:00-23:00",
    "latitude": "54.175635",
    "longitude": "37.647262",
    "sort": "500",
    "change_at": "01.06.2018 14:24:29",
    "id": "9852"
  },
  {
    "code": "frompsb_22161",
    "type": "Банкомат",
    "name": "Банкомат ПАО ПРОМСВЯЗЬБАНК",
    "city": "с. Осиновая Гора; мкр. Левобережный [9851]",
    "activity": "Да",
    "address": "улица Аркадия Шипунова; дом 1 А",
    "schedule": "пн.-вс. 08:00-23:00",
    "latitude": "54.175982",
    "longitude": "37.64697",
    "sort": "500",
    "change_at": "01.06.2018 14:24:29",
    "id": "9853"
  },
  {
    "code": "frompsb_23732",
    "type": "Банкомат",
    "name": "Банкомат ПАО ПРОМСВЯЗЬБАНК",
    "city": "Астрахань [9861]",
    "activity": "Да",
    "address": "улица Богдана Хмельницкого; дом 27/48",
    "schedule": "круглосуточно",
    "latitude": "46.335276",
    "longitude": "48.021767",
    "sort": "500",
    "change_at": "01.06.2018 14:24:29",
    "id": "9862"
  },
  {
    "code": "frompsb_9",
    "type": "Банкомат",
    "name": "Банкомат ПАО ПРОМСВЯЗЬБАНК",
    "city": "Астрахань [9861]",
    "activity": "Да",
    "address": "улица Адмиралтейская; дом 14",
    "schedule": "круглосуточно",
    "latitude": "46.352211",
    "longitude": "48.033669",
    "sort": "500",
    "change_at": "01.06.2018 14:24:29",
    "id": "9863"
  },
  {
    "code": "frompsb_23742",
    "type": "Платёжный терминал",
    "name": "Платёжный терминал ПАО ПРОМСВЯЗЬБАНК",
    "city": "Астрахань [9861]",
    "activity": "Да",
    "address": "улица Адмиралтейская; дом 14",
    "schedule": "круглосуточно",
    "latitude": "46.352211",
    "longitude": "48.033669",
    "sort": "500",
    "change_at": "01.06.2018 14:24:29",
    "id": "9864"
  },
  {
    "code": "frompsb_23736",
    "type": "Платёжный терминал",
    "name": "Платёжный терминал ПАО ПРОМСВЯЗЬБАНК",
    "city": "Астрахань [9861]",
    "activity": "Да",
    "address": "улица Адмиралтейская; дом 14",
    "schedule": "круглосуточно",
    "latitude": "46.352502",
    "longitude": "48.03375",
    "sort": "500",
    "change_at": "01.06.2018 14:24:29",
    "id": "9865"
  },
  {
    "code": "frompsb_5735",
    "type": "Банкомат",
    "name": "Банкомат ПАО ПРОМСВЯЗЬБАНК",
    "city": "Астрахань [9861]",
    "activity": "Да",
    "address": "улица Николая Островского; дом 146 А",
    "schedule": "круглосуточно",
    "latitude": "46.333722",
    "longitude": "48.055865",
    "sort": "500",
    "change_at": "01.06.2018 14:24:29",
    "id": "9866"
  },
  {
    "code": "frompsb_18873",
    "type": "Банкомат",
    "name": "Банкомат ПАО ПРОМСВЯЗЬБАНК",
    "city": "Астрахань [9861]",
    "activity": "Да",
    "address": "улица Мейера; дом 8",
    "schedule": "пн.-вс. 08:00-20:00",
    "latitude": "46.41647",
    "longitude": "47.984328",
    "sort": "500",
    "change_at": "01.06.2018 14:24:29",
    "id": "9867"
  },
  {
    "code": "frompsb_25636",
    "type": "Банкомат",
    "name": "Банкомат ПАО ПРОМСВЯЗЬБАНК",
    "city": "Астрахань [9861]",
    "activity": "Да",
    "address": "улица Савушкина; дом 5",
    "schedule": "пн.-вс. 09:00-22:00",
    "latitude": "46.374209",
    "longitude": "48.050674",
    "sort": "500",
    "change_at": "01.06.2018 14:24:29",
    "id": "9871"
  },
  {
    "code": "frompsb_9495",
    "type": "Банкомат",
    "name": "Банкомат ПАО ПРОМСВЯЗЬБАНК",
    "city": "Астрахань [9861]",
    "activity": "Да",
    "address": "улица Татищева; дом 18; литера Б",
    "schedule": "пн.-вс. 08:00-20:00",
    "latitude": "46.37643",
    "longitude": "48.05329",
    "sort": "500",
    "change_at": "01.06.2018 14:24:29",
    "id": "9874"
  },
  {
    "code": "frompsb_27876",
    "type": "Банкомат",
    "name": "Банкомат ПАО ПРОМСВЯЗЬБАНК",
    "city": "Астрахань [9861]",
    "activity": "Да",
    "address": "улица Яблочкова; дом 2 В",
    "schedule": "круглосуточно",
    "latitude": "46.372888",
    "longitude": "48.079706",
    "sort": "500",
    "change_at": "01.06.2018 14:24:29",
    "id": "9875"
  },
  {
    "code": "frompsb_25996",
    "type": "Банкомат",
    "name": "Банкомат ПАО ПРОМСВЯЗЬБАНК",
    "city": "Астрахань [9861]",
    "activity": "Да",
    "address": "площадь Вокзальная; дом 13",
    "schedule": "пн.-вс. 10:00-22:00",
    "latitude": "46.359765",
    "longitude": "48.055508",
    "sort": "500",
    "change_at": "01.06.2018 14:24:29",
    "id": "11586"
  },
  {
    "code": "frompsb_29966",
    "type": "Банкомат",
    "name": "Банкомат ПАО ПРОМСВЯЗЬБАНК",
    "city": "Астрахань [9861]",
    "activity": "Да",
    "address": "улица Адмиралтейская; дом 14",
    "schedule": "круглосуточно",
    "latitude": "46.352662",
    "longitude": "48.033836",
    "sort": "500",
    "change_at": "01.06.2018 14:24:29",
    "id": "12205"
  },
  {
    "code": "frompsb_27866",
    "type": "Банкомат",
    "name": "Банкомат ПАО ПРОМСВЯЗЬБАНК",
    "city": "Новомосковск [9868]",
    "activity": "Да",
    "address": "улица Комсомольская/улица Трудовые резервы; дом 21/34",
    "schedule": "круглосуточно",
    "latitude": "54.011454",
    "longitude": "38.287756",
    "sort": "500",
    "change_at": "01.06.2018 14:24:29",
    "id": "9869"
  },
  {
    "code": "frompsb_27861",
    "type": "Платёжный терминал",
    "name": "Платёжный терминал ПАО ПРОМСВЯЗЬБАНК",
    "city": "Новомосковск [9868]",
    "activity": "Да",
    "address": "улица Комсомольская/улица Трудовые резервы; дом 21/34",
    "schedule": "пн.-пт. 09:00-19:00; сб.-вс. выходной",
    "latitude": "54.011478",
    "longitude": "38.287785",
    "sort": "500",
    "change_at": "01.06.2018 14:24:29",
    "id": "9870"
  },
  {
    "code": "frompsb_25123",
    "type": "Банкомат",
    "name": "Банкомат ПАО ПРОМСВЯЗЬБАНК",
    "city": "п. Ревякино [9872]",
    "activity": "Да",
    "address": "улица Советская; дом 2",
    "schedule": "пн.-пт. 07:00-19:00; сб.-вс. выходной",
    "latitude": "54.367562",
    "longitude": "37.66256",
    "sort": "500",
    "change_at": "01.06.2018 14:24:29",
    "id": "9873"
  },
  {
    "code": "frompsb_9476",
    "type": "Банкомат",
    "name": "Банкомат ПАО ПРОМСВЯЗЬБАНК",
    "city": "д. Грибовка [9876]",
    "activity": "Да",
    "address": "Калужская область; Жуковский район",
    "schedule": "круглосуточно",
    "latitude": "54.936626",
    "longitude": "36.857858",
    "sort": "500",
    "change_at": "01.06.2018 14:24:29",
    "id": "9877"
  },
  {
    "code": "frompsb_9429",
    "type": "Банкомат",
    "name": "Банкомат ПАО ПРОМСВЯЗЬБАНК",
    "city": "Протвино [9878]",
    "activity": "Да",
    "address": "улица Дружбы; дом 2",
    "schedule": "круглосуточно",
    "latitude": "54.872696",
    "longitude": "37.210196",
    "sort": "500",
    "change_at": "01.06.2018 14:24:29",
    "id": "9879"
  },
  {
    "code": "frompsb_22727",
    "type": "Банкомат",
    "name": "Банкомат ПАО ПРОМСВЯЗЬБАНК",
    "city": "Серпухов [9880]",
    "activity": "Да",
    "address": "Борисовское шоссе; дом 1",
    "schedule": "пн.-вс. 10:00-22:00",
    "latitude": "54.917324",
    "longitude": "37.42585",
    "sort": "500",
    "change_at": "01.06.2018 14:24:29",
    "id": "9881"
  },
  {
    "code": "frompsb_42",
    "type": "Банкомат",
    "name": "Банкомат ПАО ПРОМСВЯЗЬБАНК",
    "city": "Серпухов [9880]",
    "activity": "Да",
    "address": "Советская улица; дом 78",
    "schedule": "круглосуточно",
    "latitude": "54.922179",
    "longitude": "37.429535",
    "sort": "500",
    "change_at": "01.06.2018 14:24:29",
    "id": "9882"
  },
  {
    "code": "frompsb_264",
    "type": "Платёжный терминал",
    "name": "Платёжный терминал ПАО ПРОМСВЯЗЬБАНК",
    "city": "Серпухов [9880]",
    "activity": "Да",
    "address": "улица Советская; дом 78",
    "schedule": "пн.-пт. 09:30-20:00; сб. 10:00-16:30; вс. выходной",
    "latitude": "54.922179",
    "longitude": "37.429535",
    "sort": "500",
    "change_at": "01.06.2018 14:24:29",
    "id": "9883"
  },
  {
    "code": "frompsb_30",
    "type": "Банкомат",
    "name": "Банкомат ПАО ПРОМСВЯЗЬБАНК",
    "city": "пгт. Шаховская [9884]",
    "activity": "Да",
    "address": "улица Комсомольская; дом 4",
    "schedule": "круглосуточно",
    "latitude": "56.033405",
    "longitude": "35.505627",
    "sort": "500",
    "change_at": "01.06.2018 14:24:29",
    "id": "9885"
  },
  {
    "code": "frompsb_261",
    "type": "Платёжный терминал",
    "name": "Платёжный терминал ПАО ПРОМСВЯЗЬБАНК",
    "city": "п. Шаховская [9886]",
    "activity": "Да",
    "address": "улица Комсомольская; дом 4",
    "schedule": "пн.-пт. 09:00-19:00; сб.-вс. выходной",
    "latitude": "56.033405",
    "longitude": "35.505627",
    "sort": "500",
    "change_at": "01.06.2018 14:24:29",
    "id": "9887"
  },
  {
    "code": "frompsb_9477",
    "type": "Банкомат",
    "name": "Банкомат ПАО ПРОМСВЯЗЬБАНК",
    "city": "Старая Русса [9894]",
    "activity": "Да",
    "address": "улица Володарского; дом 22",
    "schedule": "пн.-вс. 09:00-21:00",
    "latitude": "57.993381",
    "longitude": "31.362893",
    "sort": "500",
    "change_at": "01.06.2018 14:24:29",
    "id": "9895"
  },
  {
    "code": "frompsb_5021",
    "type": "Банкомат",
    "name": "Банкомат ПАО ПРОМСВЯЗЬБАНК",
    "city": "Петров Вал [9896]",
    "activity": "Да",
    "address": "улица Ленина; дом 39",
    "schedule": "круглосуточно",
    "latitude": "50.138452",
    "longitude": "45.206527",
    "sort": "500",
    "change_at": "01.06.2018 14:24:29",
    "id": "9897"
  },
  {
    "code": "frompsb_18433",
    "type": "Банкомат",
    "name": "Банкомат ПАО ПРОМСВЯЗЬБАНК",
    "city": "Троицк [9898]",
    "activity": "Да",
    "address": "улица Солнечная; дом 13",
    "schedule": "пн.-вс. 09:00-22:00",
    "latitude": "55.470102",
    "longitude": "37.290289",
    "sort": "500",
    "change_at": "01.06.2018 14:24:29",
    "id": "9899"
  },
  {
    "code": "frompsb_22214",
    "type": "Банкомат",
    "name": "Банкомат ПАО ПРОМСВЯЗЬБАНК",
    "city": "Камышин [9900]",
    "activity": "Да",
    "address": "5-й микрорайон; дом 48 Б",
    "schedule": "пн.-вс. 10:00-22:00",
    "latitude": "50.0911",
    "longitude": "45.356663",
    "sort": "500",
    "change_at": "01.06.2018 14:24:29",
    "id": "9901"
  },
  {
    "code": "frompsb_27022",
    "type": "Банкомат",
    "name": "Банкомат ПАО ПРОМСВЯЗЬБАНК",
    "city": "Камышин [9900]",
    "activity": "Да",
    "address": "улица Базарова; дом 150",
    "schedule": "пн.-вс. 09:00-22:00",
    "latitude": "50.089515",
    "longitude": "45.377663",
    "sort": "500",
    "change_at": "01.06.2018 14:24:29",
    "id": "9902"
  },
  {
    "code": "frompsb_22830",
    "type": "Банкомат",
    "name": "Банкомат ПАО ПРОМСВЯЗЬБАНК",
    "city": "Камышин [9900]",
    "activity": "Да",
    "address": "улица Пролетарская; дом 103 А",
    "schedule": "пн.-пт. 09:00-17:00; сб.-вс. 09:00-16:00",
    "latitude": "50.076873",
    "longitude": "45.400228",
    "sort": "500",
    "change_at": "01.06.2018 14:24:29",
    "id": "9903"
  },
  {
    "code": "frompsb_5050",
    "type": "Банкомат",
    "name": "Банкомат ПАО ПРОМСВЯЗЬБАНК",
    "city": "Камышин [9900]",
    "activity": "Да",
    "address": "улица Пролетарская; дом 70/1",
    "schedule": "круглосуточно",
    "latitude": "50.077832",
    "longitude": "45.400437",
    "sort": "500",
    "change_at": "01.06.2018 14:24:29",
    "id": "9904"
  },
  {
    "code": "frompsb_25997",
    "type": "Банкомат",
    "name": "Банкомат ПАО ПРОМСВЯЗЬБАНК",
    "city": "Камышин [9900]",
    "activity": "Да",
    "address": "улица Октябрьская; дом 60",
    "schedule": "пн.-чт. 08:30-17:30; пт. 08:30-16:30; сб.-вс. выходной",
    "latitude": "50.086479",
    "longitude": "45.402318",
    "sort": "500",
    "change_at": "01.06.2018 14:24:29",
    "id": "9905"
  },
  {
    "code": "frompsb_18578",
    "type": "Банкомат",
    "name": "Банкомат ПАО ПРОМСВЯЗЬБАНК",
    "city": "Камышин [9900]",
    "activity": "Да",
    "address": "Промышленная зона",
    "schedule": "пн.-пт. 07:00-00:00; сб.-вс. выходной",
    "latitude": "50.120168",
    "longitude": "45.364086",
    "sort": "500",
    "change_at": "01.06.2018 14:24:29",
    "id": "9906"
  },
  {
    "code": "frompsb_5051",
    "type": "Банкомат",
    "name": "Банкомат ПАО ПРОМСВЯЗЬБАНК",
    "city": "Камышин [9900]",
    "activity": "Да",
    "address": "7-й микрорайон; дом 27",
    "schedule": "круглосуточно",
    "latitude": "50.085424",
    "longitude": "45.411539",
    "sort": "500",
    "change_at": "01.06.2018 14:24:29",
    "id": "9907"
  },
  {
    "code": "frompsb_25894",
    "type": "Банкомат",
    "name": "Банкомат ПАО ПРОМСВЯЗЬБАНК",
    "city": "Камышин [9900]",
    "activity": "Да",
    "address": "улица Рязано-Уральская; дом 52",
    "schedule": "пн.-чт. 08:00-17:00; пт. 08:00-16:00; сб.-вс. выходной",
    "latitude": "50.100182",
    "longitude": "45.398169",
    "sort": "500",
    "change_at": "01.06.2018 14:24:29",
    "id": "9908"
  },
  {
    "code": "frompsb_439",
    "type": "Банкомат",
    "name": "Банкомат ПАО ПРОМСВЯЗЬБАНК",
    "city": "Камышин [9900]",
    "activity": "Да",
    "address": "улица Линейная; дом 4",
    "schedule": "круглосуточно",
    "latitude": "50.093714",
    "longitude": "45.421318",
    "sort": "500",
    "change_at": "01.06.2018 14:24:29",
    "id": "9912"
  },
  {
    "code": "frompsb_19145",
    "type": "Банкомат",
    "name": "Банкомат ПАО ПРОМСВЯЗЬБАНК",
    "city": "Камышин [9900]",
    "activity": "Да",
    "address": "улица Терешковой; дом 3",
    "schedule": "пн.-вс. 07:00-20:00",
    "latitude": "50.102116",
    "longitude": "45.416997",
    "sort": "500",
    "change_at": "01.06.2018 14:24:29",
    "id": "9913"
  },
  {
    "code": "frompsb_13655",
    "type": "Банкомат",
    "name": "Банкомат ПАО ПРОМСВЯЗЬБАНК",
    "city": "Камышин [9900]",
    "activity": "Да",
    "address": "улица Ленина; дом 15",
    "schedule": "круглосуточно",
    "latitude": "50.104285",
    "longitude": "45.420264",
    "sort": "500",
    "change_at": "01.06.2018 14:24:29",
    "id": "9914"
  },
  {
    "code": "frompsb_22028",
    "type": "Платёжный терминал",
    "name": "Платёжный терминал ПАО ПРОМСВЯЗЬБАНК",
    "city": "Камышин [9900]",
    "activity": "Да",
    "address": "улица Ленина; дом 15",
    "schedule": "пн.-пт. 09:00-19:00; сб. 10:00-16:30; вс. выходной",
    "latitude": "50.104298",
    "longitude": "45.420296",
    "sort": "500",
    "change_at": "01.06.2018 14:24:29",
    "id": "9915"
  },
  {
    "code": "frompsb_21754",
    "type": "Банкомат",
    "name": "Банкомат ПАО ПРОМСВЯЗЬБАНК",
    "city": "Камышин [9900]",
    "activity": "Да",
    "address": "улица Ленина; дом 15",
    "schedule": "круглосуточно",
    "latitude": "50.104308",
    "longitude": "45.420301",
    "sort": "500",
    "change_at": "01.06.2018 14:24:29",
    "id": "9916"
  },
  {
    "code": "frompsb_9416",
    "type": "Банкомат",
    "name": "Банкомат ПАО ПРОМСВЯЗЬБАНК",
    "city": "Камышин [9900]",
    "activity": "Да",
    "address": "улица Некрасова; дом 27",
    "schedule": "пн.-вс. 08:00-21:00",
    "latitude": "50.101522",
    "longitude": "45.427258",
    "sort": "500",
    "change_at": "01.06.2018 14:24:30",
    "id": "9917"
  },
  {
    "code": "frompsb_22828",
    "type": "Банкомат",
    "name": "Банкомат ПАО ПРОМСВЯЗЬБАНК",
    "city": "Климовск [9909]",
    "activity": "Да",
    "address": "улица Молодежная; дом 11",
    "schedule": "пн.-вс. 08:30-23:00",
    "latitude": "55.385623",
    "longitude": "37.545447",
    "sort": "500",
    "change_at": "01.06.2018 14:24:29",
    "id": "9910"
  },
  {
    "code": "frompsb_16575",
    "type": "Банкомат",
    "name": "Банкомат ПАО ПРОМСВЯЗЬБАНК",
    "city": "Климовск [9909]",
    "activity": "Да",
    "address": "улица Молодежная; дом 11",
    "schedule": "пн.-вс. 08:00-23:00",
    "latitude": "55.385748",
    "longitude": "37.545511",
    "sort": "500",
    "change_at": "01.06.2018 14:24:29",
    "id": "9911"
  },
  {
    "code": "frompsb_26403",
    "type": "Банкомат",
    "name": "Банкомат ПАО ПРОМСВЯЗЬБАНК",
    "city": "мкр. Барыбино [9921]",
    "activity": "Да",
    "address": "улица 1-я Вокзальная; дом 28 Б",
    "schedule": "пн.-вс. 09:00-22:00",
    "latitude": "55.270376",
    "longitude": "37.894049",
    "sort": "500",
    "change_at": "01.06.2018 14:24:30",
    "id": "9922"
  },
  {
    "code": "frompsb_23739",
    "type": "Банкомат",
    "name": "Банкомат ПАО ПРОМСВЯЗЬБАНК",
    "city": "Одинцовский р-н [9923]",
    "activity": "Да",
    "address": "село Юдино; дом 55 Е",
    "schedule": "пн.-вс. 08:00-23:00",
    "latitude": "55.654029",
    "longitude": "37.177778",
    "sort": "500",
    "change_at": "01.06.2018 14:24:30",
    "id": "9924"
  },
  {
    "code": "frompsb_23738",
    "type": "Банкомат",
    "name": "Банкомат ПАО ПРОМСВЯЗЬБАНК",
    "city": "Одинцовский р-н [9923]",
    "activity": "Да",
    "address": "село Юдино; дом 55 Е",
    "schedule": "пн.-вс. 08:00-23:00",
    "latitude": "55.654193",
    "longitude": "37.178545",
    "sort": "500",
    "change_at": "01.06.2018 14:24:30",
    "id": "9925"
  },
  {
    "code": "frompsb_23721",
    "type": "Банкомат",
    "name": "Банкомат ПАО ПРОМСВЯЗЬБАНК",
    "city": "п. ВНИИССОК [9926]",
    "activity": "Да",
    "address": "улица Кутузова; дом 5",
    "schedule": "пн.-вс. 09:00-22:00",
    "latitude": "55.660363",
    "longitude": "37.216687",
    "sort": "500",
    "change_at": "01.06.2018 14:24:30",
    "id": "9927"
  },
  {
    "code": "frompsb_17825",
    "type": "Банкомат",
    "name": "Банкомат ПАО ПРОМСВЯЗЬБАНК",
    "city": "с. Акулово [9928]",
    "activity": "Да",
    "address": "улица Новая; дом 120",
    "schedule": "пн.-пт. 09:00-18:00; сб.-вс. выходной",
    "latitude": "55.6628",
    "longitude": "37.229683",
    "sort": "500",
    "change_at": "01.06.2018 14:24:30",
    "id": "9929"
  },
  {
    "code": "frompsb_6006",
    "type": "Банкомат",
    "name": "Банкомат ПАО ПРОМСВЯЗЬБАНК",
    "city": "Щербинка [9930]",
    "activity": "Да",
    "address": "улица Пушкинская; дом 2",
    "schedule": "пн.-пт. 10:00-21:00; сб.-вс. 10:00-19:00",
    "latitude": "55.510445",
    "longitude": "37.564008",
    "sort": "500",
    "change_at": "01.06.2018 14:24:30",
    "id": "9931"
  },
  {
    "code": "frompsb_149",
    "type": "Банкомат",
    "name": "Банкомат ПАО ПРОМСВЯЗЬБАНК",
    "city": "Одинцово [9932]",
    "activity": "Да",
    "address": "Можайское шоссе; дом 80 А",
    "schedule": "круглосуточно",
    "latitude": "55.683807",
    "longitude": "37.297404",
    "sort": "500",
    "change_at": "01.06.2018 14:24:30",
    "id": "9933"
  },
  {
    "code": "frompsb_6099",
    "type": "Платёжный терминал",
    "name": "Платёжный терминал ПАО ПРОМСВЯЗЬБАНК",
    "city": "Одинцово [9932]",
    "activity": "Да",
    "address": "Можайское шоссе; дом 80 А",
    "schedule": "круглосуточно",
    "latitude": "55.683944",
    "longitude": "37.297468",
    "sort": "500",
    "change_at": "01.06.2018 14:24:30",
    "id": "9934"
  },
  {
    "code": "frompsb_23629",
    "type": "Банкомат",
    "name": "Банкомат ПАО ПРОМСВЯЗЬБАНК",
    "city": "Истра [9935]",
    "activity": "Да",
    "address": "улица 9-й Гвардейской Дивизии; дом 9; корпус 3",
    "schedule": "пн.-сб. 10:00-20:00; вс. 10:00-19:00",
    "latitude": "55.913398",
    "longitude": "36.864684",
    "sort": "500",
    "change_at": "01.06.2018 14:24:30",
    "id": "9936"
  },
  {
    "code": "frompsb_26393",
    "type": "Банкомат",
    "name": "Банкомат ПАО ПРОМСВЯЗЬБАНК",
    "city": "Ленинский р-н [9939]",
    "activity": "Да",
    "address": "дом Румянцево; дом 1; строение 1",
    "schedule": "пн.-вс. 10:00-22:00",
    "latitude": "55.633986",
    "longitude": "37.44078",
    "sort": "500",
    "change_at": "01.06.2018 14:24:30",
    "id": "9940"
  },
  {
    "code": "frompsb_28207",
    "type": "Банкомат",
    "name": "Банкомат ПАО ПРОМСВЯЗЬБАНК",
    "city": "пгт. Новоивановское [9942]",
    "activity": "Да",
    "address": "улица Калинина; дом 1; корпус 4",
    "schedule": "круглосуточно",
    "latitude": "55.708115",
    "longitude": "37.371443",
    "sort": "500",
    "change_at": "01.06.2018 14:24:30",
    "id": "9943"
  },
  {
    "code": "frompsb_22602",
    "type": "Банкомат",
    "name": "Банкомат ПАО ПРОМСВЯЗЬБАНК",
    "city": "п. Нахабино [9951]",
    "activity": "Да",
    "address": "улица Школьная; дом 2",
    "schedule": "пн.-вс. 09:00-23:00",
    "latitude": "55.841809",
    "longitude": "37.145811",
    "sort": "500",
    "change_at": "01.06.2018 14:24:30",
    "id": "9952"
  },
  {
    "code": "frompsb_22606",
    "type": "Банкомат",
    "name": "Банкомат ПАО ПРОМСВЯЗЬБАНК",
    "city": "п. Нахабино [9951]",
    "activity": "Да",
    "address": "улица Институтская; дом 17",
    "schedule": "пн.-вс. 09:00-21:00",
    "latitude": "55.841201",
    "longitude": "37.180571",
    "sort": "500",
    "change_at": "01.06.2018 14:24:30",
    "id": "9954"
  },
  {
    "code": "frompsb_6109",
    "type": "Банкомат",
    "name": "Банкомат ПАО ПРОМСВЯЗЬБАНК",
    "city": "д. Лечищево [9970]",
    "activity": "Да",
    "address": "улица Песчаная; дом 2",
    "schedule": "круглосуточно",
    "latitude": "56.049609",
    "longitude": "36.827623",
    "sort": "500",
    "change_at": "01.06.2018 14:24:30",
    "id": "9971"
  },
  {
    "code": "frompsb_37",
    "type": "Банкомат",
    "name": "Банкомат ПАО ПРОМСВЯЗЬБАНК",
    "city": "Красногорск [9982]",
    "activity": "Да",
    "address": "улица Комсомольская; дом 23",
    "schedule": "круглосуточно",
    "latitude": "55.817184",
    "longitude": "37.318661",
    "sort": "500",
    "change_at": "01.06.2018 14:24:30",
    "id": "9983"
  },
  {
    "code": "frompsb_258",
    "type": "Платёжный терминал",
    "name": "Платёжный терминал ПАО ПРОМСВЯЗЬБАНК",
    "city": "Красногорск [9982]",
    "activity": "Да",
    "address": "улица Комсомольская; дом 23",
    "schedule": "пн.-пт. 09:00-20:30; сб.-вс. выходной",
    "latitude": "55.817184",
    "longitude": "37.318661",
    "sort": "500",
    "change_at": "01.06.2018 14:24:30",
    "id": "9984"
  },
  {
    "code": "frompsb_6086",
    "type": "Платёжный терминал",
    "name": "Платёжный терминал ПАО ПРОМСВЯЗЬБАНК",
    "city": "Красногорск [9982]",
    "activity": "Да",
    "address": "улица Комсомольская; дом 23",
    "schedule": "пн.-пт. 09:00-20:30; сб.-вс. выходной",
    "latitude": "55.817282",
    "longitude": "37.318948",
    "sort": "500",
    "change_at": "01.06.2018 14:24:30",
    "id": "9985"
  },
  {
    "code": "frompsb_24054",
    "type": "Банкомат",
    "name": "Банкомат ПАО ПРОМСВЯЗЬБАНК",
    "city": "Красногорск [9982]",
    "activity": "Да",
    "address": "улица Комсомольская; дом 23",
    "schedule": "пн.-пт. 09:00-20:30; сб.-вс. выходной",
    "latitude": "55.817341",
    "longitude": "37.319179",
    "sort": "500",
    "change_at": "01.06.2018 14:24:30",
    "id": "9986"
  },
  {
    "code": "frompsb_26391",
    "type": "Банкомат",
    "name": "Банкомат ПАО ПРОМСВЯЗЬБАНК",
    "city": "Красногорск [9982]",
    "activity": "Да",
    "address": "улица Ленина; дом 40",
    "schedule": "пн.-вс. 09:00-21:00",
    "latitude": "55.834497",
    "longitude": "37.297469",
    "sort": "500",
    "change_at": "01.06.2018 14:24:31",
    "id": "9987"
  },
  {
    "code": "frompsb_9456",
    "type": "Банкомат",
    "name": "Банкомат ПАО ПРОМСВЯЗЬБАНК",
    "city": "Красногорск [9982]",
    "activity": "Да",
    "address": "Волоколамское шоссе; дом 3; строение 1",
    "schedule": "пн.-вс. 10:00-22:00",
    "latitude": "55.819099",
    "longitude": "37.338241",
    "sort": "500",
    "change_at": "01.06.2018 14:24:31",
    "id": "9989"
  },
  {
    "code": "frompsb_6828",
    "type": "Банкомат",
    "name": "Банкомат ПАО ПРОМСВЯЗЬБАНК",
    "city": "Великий Новгород [9992]",
    "activity": "Да",
    "address": "улица Нехинская; дом 61",
    "schedule": "круглосуточно",
    "latitude": "58.524313",
    "longitude": "31.2179",
    "sort": "500",
    "change_at": "01.06.2018 14:24:31",
    "id": "9993"
  },
  {
    "code": "frompsb_6129",
    "type": "Банкомат",
    "name": "Банкомат ПАО ПРОМСВЯЗЬБАНК",
    "city": "Великий Новгород [9992]",
    "activity": "Да",
    "address": "улица Октябрьская; дом 21",
    "schedule": "пн.-вс. 10:00-22:00",
    "latitude": "58.530718",
    "longitude": "31.256107",
    "sort": "500",
    "change_at": "01.06.2018 14:24:31",
    "id": "10001"
  },
  {
    "code": "frompsb_22599",
    "type": "Банкомат",
    "name": "Банкомат ПАО ПРОМСВЯЗЬБАНК",
    "city": "Великий Новгород [9992]",
    "activity": "Да",
    "address": "улица Свободы; дом 25",
    "schedule": "пн.-вс. 10:00-20:00",
    "latitude": "58.541307",
    "longitude": "31.230722",
    "sort": "500",
    "change_at": "01.06.2018 14:24:31",
    "id": "10003"
  },
  {
    "code": "frompsb_897",
    "type": "Банкомат",
    "name": "Банкомат ПАО ПРОМСВЯЗЬБАНК",
    "city": "Великий Новгород [9992]",
    "activity": "Да",
    "address": "улица Розважа; дом 15",
    "schedule": "круглосуточно",
    "latitude": "58.525776",
    "longitude": "31.279174",
    "sort": "500",
    "change_at": "01.06.2018 14:24:31",
    "id": "10006"
  },
  {
    "code": "frompsb_5011",
    "type": "Банкомат",
    "name": "Банкомат ПАО ПРОМСВЯЗЬБАНК",
    "city": "Великий Новгород [9992]",
    "activity": "Да",
    "address": "улица Большая Санкт-Петербургская; дом 25",
    "schedule": "пн.-вс. 10:00-21:00",
    "latitude": "58.532965",
    "longitude": "31.267231",
    "sort": "500",
    "change_at": "01.06.2018 14:24:31",
    "id": "10010"
  },
  {
    "code": "frompsb_18066",
    "type": "Банкомат",
    "name": "Банкомат ПАО ПРОМСВЯЗЬБАНК",
    "city": "Великий Новгород [9992]",
    "activity": "Да",
    "address": "проспект Александра Корсунова; дом 34 Б",
    "schedule": "круглосуточно",
    "latitude": "58.548538",
    "longitude": "31.237414",
    "sort": "500",
    "change_at": "01.06.2018 14:24:31",
    "id": "10017"
  },
  {
    "code": "frompsb_21878",
    "type": "Банкомат",
    "name": "Банкомат ПАО ПРОМСВЯЗЬБАНК",
    "city": "Великий Новгород [9992]",
    "activity": "Да",
    "address": "улица Б. Санкт-Петербургская; дом 39",
    "schedule": "пн.-сб. 10:00-21:00; вс. 11:00-20:00",
    "latitude": "58.53888",
    "longitude": "31.263477",
    "sort": "500",
    "change_at": "01.06.2018 14:24:31",
    "id": "10018"
  },
  {
    "code": "frompsb_22388",
    "type": "Банкомат",
    "name": "Банкомат ПАО ПРОМСВЯЗЬБАНК",
    "city": "Великий Новгород [9992]",
    "activity": "Да",
    "address": "улица Великая дом 22 А",
    "schedule": "круглосуточно",
    "latitude": "58.542872",
    "longitude": "31.266396",
    "sort": "500",
    "change_at": "01.06.2018 14:24:31",
    "id": "10027"
  },
  {
    "code": "frompsb_26206",
    "type": "Банкомат",
    "name": "Банкомат ПАО ПРОМСВЯЗЬБАНК",
    "city": "Великий Новгород [9992]",
    "activity": "Да",
    "address": "улица Большая Московская; дом 112 А",
    "schedule": "пн.-вс. 10:00-21:00",
    "latitude": "58.541953",
    "longitude": "31.304383",
    "sort": "500",
    "change_at": "01.06.2018 14:24:32",
    "id": "10046"
  },
  {
    "code": "frompsb_5020",
    "type": "Банкомат",
    "name": "Банкомат ПАО ПРОМСВЯЗЬБАНК",
    "city": "Великий Новгород [9992]",
    "activity": "Да",
    "address": "улица Б. Cанкт-Петербургская; дом 130",
    "schedule": "пн.-вс. 09:00-22:00",
    "latitude": "58.565299",
    "longitude": "31.279945",
    "sort": "500",
    "change_at": "01.06.2018 14:24:32",
    "id": "10056"
  }
]